{
"type": "FeatureCollection",
"name": "acao",
"crs": { "type": "name", "properties": { "name": "urn:ogc:def:crs:OGC:1.3:CRS84" } },
"features": [
{ "type": "Feature", "id": 1804, "properties": { "nome_acao": "COLETIVO AME O SANTO AMARO", "premiado": false, "nome_comunidade": "MORRO SANTO AMARO", "localidade": "Rua Santo Amaro 349, Santa Teresa, Rio de Janeiro - Rio de Janeiro, 22211, Brasil", "organizacao": "COLETIVO AME O SANTO AMARO", "categoria": "Acesso à Justiça e Combate às Desigualdades", "estado": "RJ", "municipio": "Rio de Janeiro" }, "geometry": { "type": "Point", "coordinates": [ -43.181548, -22.923964 ] } },
{ "type": "Feature", "id": 1805, "properties": { "nome_acao": "Placemaking jardimrosaspa", "premiado": false, "nome_comunidade": "Amigos do jardimrosaspa", "localidade": "Rua Bela, São José, São Pedro da Aldeia - Rio de Janeiro, 28940-000, Brasil", "organizacao": "Amigos do jardimrosaspa", "categoria": "Planejamento Urbano, Gestão de Riscos e Responsabilidade Climática", "estado": "RJ", "municipio": "São Pedro da Aldeia" }, "geometry": { "type": "Point", "coordinates": [ -42.097616, -22.8289679 ] } },
{ "type": "Feature", "id": 1806, "properties": { "nome_acao": "Projeto Jovens Comunicadores", "premiado": false, "nome_comunidade": "Caramujo; Morro do Estado", "localidade": "Niterói, Rio de Janeiro, Brasil", "organizacao": "Associação Experimental de Mídia Comunitária - BEMTV", "categoria": "Comunicação, Inclusão Digital e Educação Popular", "estado": "RJ", "municipio": "Niterói" }, "geometry": { "type": "Point", "coordinates": [ -43.115455, -22.883237 ] } },
{ "type": "Feature", "id": 1807, "properties": { "nome_acao": "Movimento Cultural das Periferias", "premiado": false, "nome_comunidade": "Periferias da Capital", "localidade": "São Paulo, São Paulo, Brasil", "organizacao": "Movimento Cultural das Periferias, Fórum de Culturas da Zona Sul e Sudeste e Fórum em Defesa da Vida", "categoria": "Cultura e Memória", "estado": "SP", "municipio": "São Paulo" }, "geometry": { "type": "Point", "coordinates": [ -46.633382, -23.550651 ] } },
{ "type": "Feature", "id": 1808, "properties": { "nome_acao": "Casa de Pedro e a Sereia - Casa Arte Ponto de Cultura e Residencia Artistica", "premiado": false, "nome_comunidade": "RESEX ARAPIRANGA TROMAI - PRAIA DE SÃO EDRO", "localidade": "Carutapera, Maranhão, Brasil", "organizacao": "Casa de Pedro e a Sereia - Casa Arte", "categoria": "Planejamento Urbano, Gestão de Riscos e Responsabilidade Climática", "estado": "MA", "municipio": "Carutapera" }, "geometry": { "type": "Point", "coordinates": [ -46.020562, -1.201664 ] } },
{ "type": "Feature", "id": 1809, "properties": { "nome_acao": "Casa Futuro", "premiado": false, "nome_comunidade": "Por do Sol", "localidade": "Rua Nelson Mandela 269, Coaçu, Fortaleza - Ceará, 60872-406, Brasil", "organizacao": "Casa Futuro", "categoria": "Acesso à Justiça e Combate às Desigualdades", "estado": "CE", "municipio": "Fortaleza" }, "geometry": { "type": "Point", "coordinates": [ -38.474217, -3.850538 ] } },
{ "type": "Feature", "id": 1810, "properties": { "nome_acao": "coletivo O Grito de Teatro que atua conjuntamente com ponto de cultura Africanidade/Restinga com formação (oficinas), produção ( projetos) , pesquisa (historias de negros invisibilizados exp João cândido Felisberto) e qualificação (Dialogos com e", "premiado": false, "nome_comunidade": "Bairro Restinga", "localidade": "Restinga, 91790, Porto Alegre, Rio Grande do Sul, Brasil", "organizacao": "Coletivo O Grito", "categoria": "Cultura e Memória", "estado": "RS", "municipio": "Porto Alegre" }, "geometry": { "type": "Point", "coordinates": [ -51.1449, -30.1528 ] } },
{ "type": "Feature", "id": 1811, "properties": { "nome_acao": "Livraria Novo Jardim", "premiado": false, "nome_comunidade": "Conj Res Novo Jardim, Eustáquio Gomes, no bairro Cidade Universitária", "localidade": "Cidade Universitária, Maceió, Alagoas, Brasil", "organizacao": "***", "categoria": "Cultura e Memória", "estado": "AL", "municipio": "Maceió" }, "geometry": { "type": "Point", "coordinates": [ -35.7682, -9.5444 ] } },
{ "type": "Feature", "id": 1812, "properties": { "nome_acao": "Escritório Popular de Arquitetura", "premiado": false, "nome_comunidade": "Diadema e Núcleos Habitacionais, Associações de Moradias e comunidades da cidade", "localidade": "Rua Pedro Guaruba Neto, Serraria, Diadema - São Paulo, 09980, Brasil", "organizacao": "Escritório Popular de Arquitetura", "categoria": "Planejamento Urbano, Gestão de Riscos e Responsabilidade Climática", "estado": "SP", "municipio": "Diadema" }, "geometry": { "type": "Point", "coordinates": [ -46.6091959, -23.7081782 ] } },
{ "type": "Feature", "id": 1813, "properties": { "nome_acao": "Casa do Beco", "premiado": false, "nome_comunidade": "Morro do Papagaio/Aglomerado Santa Lúcia", "localidade": "Avenida Artur Bernardes 3876, Vila Barragem Santa Lúcia, Belo Horizonte - Minas Gerais, 30335-790, Brasil", "organizacao": "Associação Cultural do Grupo do Beco", "categoria": "Cultura e Memória", "estado": "MG", "municipio": "Belo Horizonte" }, "geometry": { "type": "Point", "coordinates": [ -43.945235, -19.95172 ] } },
{ "type": "Feature", "id": 1814, "properties": { "nome_acao": "Comissão Solidária Vila da Barca- Projeto Barca Literária", "premiado": false, "nome_comunidade": "Comunidade Vila da Barca", "localidade": "Passagem Cameta, Telégrafo, Belém - Pará, 66113-080, Brasil", "organizacao": "Comissão Solidária Vila da Barca", "categoria": "Comunicação, Inclusão Digital e Educação Popular", "estado": "PA", "municipio": "Belém" }, "geometry": { "type": "Point", "coordinates": [ -48.4917802, -1.4265701 ] } },
{ "type": "Feature", "id": 1815, "properties": { "nome_acao": "Educação em Saúde Mental", "premiado": false, "nome_comunidade": "Vietnã", "localidade": "Jabaquara, São Paulo, São Paulo, Brasil", "organizacao": "Liga Acadêmica Virgínia Bicudo", "categoria": "Saúde Integral e Dignidade Humana", "estado": "SP", "municipio": "São Paulo" }, "geometry": { "type": "Point", "coordinates": [ -46.6455, -23.6487 ] } },
{ "type": "Feature", "id": 1816, "properties": { "nome_acao": "Ponto de Cultura Caminhos Audiovisuais", "premiado": false, "nome_comunidade": "Em diversas RA no DF em especial Estrutural.", "localidade": "SQN 107, SQN 107, Brasília, Distrito Federal 70743, Brasil", "organizacao": "Ponto de Cultura Caminhos Audiovisuais", "categoria": "Comunicação, Inclusão Digital e Educação Popular", "estado": "DF", "municipio": "Brasília" }, "geometry": { "type": "Point", "coordinates": [ -47.885275, -15.766398 ] } },
{ "type": "Feature", "id": 1817, "properties": { "nome_acao": "Ateliê Ação Com Pão", "premiado": false, "nome_comunidade": "Capão Redondo", "localidade": "Capão Redondo, São Paulo, São Paulo, Brasil", "organizacao": "Instituto Ação Geral", "categoria": "Acesso à Justiça e Combate às Desigualdades", "estado": "SP", "municipio": "São Paulo" }, "geometry": { "type": "Point", "coordinates": [ -46.7793, -23.6707 ] } },
{ "type": "Feature", "id": 1818, "properties": { "nome_acao": "Associação Artística e Cultural da Periferia, Semana do Orgulho Periférico", "premiado": false, "nome_comunidade": "SINOPSE   ATIVIDADE SEMANA DO ORGULHO PERIFERICO A comunidade do Bairro Restinga  mobiliza-se entorno da  Semana do Orgulho Periférico Lei Municipal Nº 12.029 que acontece em agosto, o papel da Cultura na Periferia e suas potencialidades”  o encontro", "localidade": "Rua Clara Nunes, Restinga, Porto Alegre - Rio Grande do Sul, 91790-270, Brasil", "organizacao": "Ponto de Cultura Ação Periférica/ Associação artística e cultural da Periferia", "categoria": "Cultura e Memória", "estado": "RS", "municipio": "Porto Alegre" }, "geometry": { "type": "Point", "coordinates": [ -51.1486784, -30.156508 ] } },
{ "type": "Feature", "id": 1819, "properties": { "nome_acao": "projeto Arqviva - Arquitetura Além da Sustentabilidade", "premiado": false, "nome_comunidade": "Ocupação Urbana Alto da Boa Vista", "localidade": "Aparecida de Goiânia, Goiás, Brasil", "organizacao": "Ideias Urbanas", "categoria": "Planejamento Urbano, Gestão de Riscos e Responsabilidade Climática", "estado": "GO", "municipio": "Aparecida de Goiânia" }, "geometry": { "type": "Point", "coordinates": [ -49.245255, -16.822677 ] } },
{ "type": "Feature", "id": 1820, "properties": { "nome_acao": "Literatura", "premiado": false, "nome_comunidade": "Badajos", "localidade": "Ipixuna do Pará, Pará, Brasil", "organizacao": "***", "categoria": "Cultura e Memória", "estado": "PA", "municipio": "Ipixuna do Pará" }, "geometry": { "type": "Point", "coordinates": [ -47.496546, -2.559214 ] } },
{ "type": "Feature", "id": 1821, "properties": { "nome_acao": "Coletivo OFIR Rec", "premiado": false, "nome_comunidade": "Feira de Gado (Brejinho)", "localidade": "Três Corações, Minas Gerais, Brasil", "organizacao": "Coletivo OFIR Rec", "categoria": "Comunicação, Inclusão Digital e Educação Popular", "estado": "MG", "municipio": "Três Corações" }, "geometry": { "type": "Point", "coordinates": [ -45.254368, -21.695625 ] } },
{ "type": "Feature", "id": 1822, "properties": { "nome_acao": "Batuque na caixa", "premiado": false, "nome_comunidade": "Zona norte e Conjunto Alexandre Urbanas", "localidade": "Avenida Da Igualdade, Alpes, Londrina - Paraná, 86077, Brasil", "organizacao": "Instituto Cultural Arte Brasil", "categoria": "Cultura e Memória", "estado": "PR", "municipio": "Londrina" }, "geometry": { "type": "Point", "coordinates": [ -51.1710631, -23.2765269 ] } },
{ "type": "Feature", "id": 1823, "properties": { "nome_acao": "Movimento Negro Raízes", "premiado": false, "nome_comunidade": "Bento Gonçalves RS", "localidade": "Bento Gonçalves, Rio Grande do Sul, Brasil", "organizacao": "Movimento Negro Raízes", "categoria": "Cultura e Memória", "estado": "RS", "municipio": "Bento Gonçalves" }, "geometry": { "type": "Point", "coordinates": [ -51.519763, -29.165401 ] } },
{ "type": "Feature", "id": 1824, "properties": { "nome_acao": "E um grupo formado por mães de crianças com deficiência que se uniram para lutar pelos seus direitos e de suas crianças, além do grupo se ajudar com doações de alimentos, fraldas, roupas, móveis e etc..", "premiado": false, "nome_comunidade": "Bairros de Carapicuíba, principalmente na Vila Artem", "localidade": "Avenida Fernanda Carapicuíba - São Paulo, 06320, Brasil", "organizacao": "Empatia e Gratidão", "categoria": "Soberania Alimentar e Nutricional", "estado": "SP", "municipio": "Carapicuíba" }, "geometry": { "type": "Point", "coordinates": [ -46.8354057, -23.5232491 ] } },
{ "type": "Feature", "id": 1825, "properties": { "nome_acao": "Coletivo # noizzpornoizz@sigla", "premiado": false, "nome_comunidade": "Praça prpfessor eduardo da costa manso", "localidade": "Praça Professor Eduardo Costa São Paulo - São Paulo, 04177, Brasil", "organizacao": "#noizzpornoizz@sigla", "categoria": "Comunicação, Inclusão Digital e Educação Popular", "estado": "SP", "municipio": "São Paulo" }, "geometry": { "type": "Point", "coordinates": [ -46.6070147, -23.6400105 ] } },
{ "type": "Feature", "id": 1826, "properties": { "nome_acao": "Super Tinga", "premiado": false, "nome_comunidade": "Restinga", "localidade": "Restinga, 91790, Porto Alegre, Rio Grande do Sul, Brasil", "organizacao": "Ponto de cultura projeta periferia", "categoria": "Cultura e Memória", "estado": "RS", "municipio": "Porto Alegre" }, "geometry": { "type": "Point", "coordinates": [ -51.1449, -30.1528 ] } },
{ "type": "Feature", "id": 1827, "properties": { "nome_acao": "Sarau invisíveis em evidências.hiphop", "premiado": false, "nome_comunidade": "Bairro Porto . Favela coqueiral", "localidade": "Aracaju, Sergipe, Brasil", "organizacao": "invisíveis em evidências hip Hop.", "categoria": "Comunicação, Inclusão Digital e Educação Popular", "estado": "SE", "municipio": "Aracaju" }, "geometry": { "type": "Point", "coordinates": [ -37.077466, -10.916206 ] } },
{ "type": "Feature", "id": 1828, "properties": { "nome_acao": "Conexão de rua", "premiado": false, "nome_comunidade": "Nova cidade", "localidade": "Rua Palmas, Nova Cidade, Boa Vista - Roraima, Brasil", "organizacao": "Associação Jovem Plugadão", "categoria": "Comunicação, Inclusão Digital e Educação Popular", "estado": "RR", "municipio": "Boa Vista" }, "geometry": { "type": "Point", "coordinates": [ -60.7323311, 2.7614447 ] } },
{ "type": "Feature", "id": 1829, "properties": { "nome_acao": "lablivre. laboratório de tecnologias livres", "premiado": false, "nome_comunidade": "parque verde", "localidade": "Alameda Helio Pinhero De Almeida 300, Parque Verde, Belém - Pará, 66635040, Brasil", "organizacao": "lablivre é um coletivo hacker e de arte digital", "categoria": "Comunicação, Inclusão Digital e Educação Popular", "estado": "PA", "municipio": "Belém" }, "geometry": { "type": "Point", "coordinates": [ -48.450785, -1.365511 ] } },
{ "type": "Feature", "id": 1830, "properties": { "nome_acao": "Reduto Pixinguinha - Cultura Urbana", "premiado": false, "nome_comunidade": "Subúrbio da Leopoldina", "localidade": "Praça Ramos Figueira, Olaria, Rio de Janeiro - Rio de Janeiro, 21031, Brasil", "organizacao": "Instituto Cultural 100% Suburbano", "categoria": "Cultura e Memória", "estado": "RJ", "municipio": "Rio de Janeiro" }, "geometry": { "type": "Point", "coordinates": [ -43.2611012, -22.8475829 ] } },
{ "type": "Feature", "id": 1831, "properties": { "nome_acao": "Associação Cultural Todos Podem", "premiado": false, "nome_comunidade": "Valparaíso, km 14, Ibituba, Bananal", "localidade": "Baixo Guandu, Espírito Santo, Brasil", "organizacao": "Associação Cultural Todos Podem", "categoria": "Economia Solidária", "estado": "ES", "municipio": "Baixo Guandu" }, "geometry": { "type": "Point", "coordinates": [ -41.018209, -19.513832 ] } },
{ "type": "Feature", "id": 1832, "properties": { "nome_acao": "Feira da Agricultura Familiar e Educação Popular", "premiado": false, "nome_comunidade": "Bairro do Guamá", "localidade": "Passagem Santa Rosa, Guamá, Belém - Pará, 66075-530, Brasil", "organizacao": "Grupo de Amigos do Guamá", "categoria": "Soberania Alimentar e Nutricional", "estado": "PA", "municipio": "Belém" }, "geometry": { "type": "Point", "coordinates": [ -48.4676219, -1.4712172 ] } },
{ "type": "Feature", "id": 1833, "properties": { "nome_acao": "Feira do Sol", "premiado": false, "nome_comunidade": "Artesãos", "localidade": "Casa De Cultura Ivan Marrocos, Av. Carlos Gomes, 600, Porto Velho, Rondônia 76081, Brasil", "organizacao": "Feira do sol", "categoria": "Cultura e Memória", "estado": "RO", "municipio": "Porto Velho" }, "geometry": { "type": "Point", "coordinates": [ -63.906842, -8.761978 ] } },
{ "type": "Feature", "id": 1834, "properties": { "nome_acao": "Movimento Popular por Moradia", "premiado": false, "nome_comunidade": "Nova Primavera, 29 de Março, Dona Cida, Tiradentes, Tiradentes II", "localidade": "Estrada Velha Do Barigui, Cidade Industrial De Curitiba, Curitiba - Paraná, 81450, Brasil", "organizacao": "Movimento Popular por Moradia - MPM", "categoria": "Planejamento Urbano, Gestão de Riscos e Responsabilidade Climática", "estado": "PR", "municipio": "Curitiba" }, "geometry": { "type": "Point", "coordinates": [ -49.3451381, -25.4939566 ] } },
{ "type": "Feature", "id": 1835, "properties": { "nome_acao": "Ocupação Nova Esperança", "premiado": false, "nome_comunidade": "Nova Esperança", "localidade": "Prefeitura Municipal de Campo Magro, Est. do Cerne, 1800 – km 18,5, Campo Magro, Paraná, Brasil", "organizacao": "Movimento Popular por Moradia", "categoria": "Planejamento Urbano, Gestão de Riscos e Responsabilidade Climática", "estado": "PR", "municipio": "Campo Magro" }, "geometry": { "type": "Point", "coordinates": [ -49.428996, -25.370832 ] } },
{ "type": "Feature", "id": 1836, "properties": { "nome_acao": "Mãos que Criam", "premiado": false, "nome_comunidade": "Urucânia", "localidade": "Paciência, 23066, Rio de Janeiro, Rio de Janeiro, Brasil", "organizacao": "Associação Conquista Social", "categoria": "Economia Solidária", "estado": "RJ", "municipio": "Rio de Janeiro" }, "geometry": { "type": "Point", "coordinates": [ -43.637, -22.8987 ] } },
{ "type": "Feature", "id": 1837, "properties": { "nome_acao": "Morrodacruzhistorias", "premiado": false, "nome_comunidade": "Morro da Cruz Partenon", "localidade": "São José, 91520, Porto Alegre, Rio Grande do Sul, Brasil", "organizacao": "***", "categoria": "Cultura e Memória", "estado": "RS", "municipio": "Porto Alegre" }, "geometry": { "type": "Point", "coordinates": [ -51.1664, -30.0672 ] } },
{ "type": "Feature", "id": 1838, "properties": { "nome_acao": "Visivo Comunidades Criativas e Cineclube Universo Paralelo", "premiado": false, "nome_comunidade": "Vila da Fábrica", "localidade": "Vila Da Fábrica, 54750, Camaragibe, Pernambuco, Brasil", "organizacao": "Periférica", "categoria": "Cultura e Memória", "estado": "PE", "municipio": "Camaragibe" }, "geometry": { "type": "Point", "coordinates": [ -34.98, -8.01 ] } },
{ "type": "Feature", "id": 1839, "properties": { "nome_acao": "cozinha SOLIDÁRIA", "premiado": false, "nome_comunidade": "Jardim Metropole", "localidade": "São João de Meriti, Rio de Janeiro, Brasil", "organizacao": "movimenta MERITI", "categoria": "Soberania Alimentar e Nutricional", "estado": "RJ", "municipio": "São João de Meriti" }, "geometry": { "type": "Point", "coordinates": [ -43.372413, -22.804374 ] } },
{ "type": "Feature", "id": 1840, "properties": { "nome_acao": "Selo Produtos do Morro Rec", "premiado": false, "nome_comunidade": "Castelo Encantado", "localidade": "Avenida Dos Jangadeiros 265, Vicente Pinzon, Fortaleza - Ceará, 60175-440, Brasil", "organizacao": "***", "categoria": "Cultura e Memória", "estado": "CE", "municipio": "Fortaleza" }, "geometry": { "type": "Point", "coordinates": [ -38.478711, -3.725785 ] } },
{ "type": "Feature", "id": 1841, "properties": { "nome_acao": "Unidos da Moradas da Hípica", "premiado": false, "nome_comunidade": "Unimoradas", "localidade": "Porto Alegre, Rio Grande do Sul, Brasil", "organizacao": "Unimoradas", "categoria": "Soberania Alimentar e Nutricional", "estado": "RS", "municipio": "Porto Alegre" }, "geometry": { "type": "Point", "coordinates": [ -51.230377, -30.0325 ] } },
{ "type": "Feature", "id": 1842, "properties": { "nome_acao": "Coletivo Kizomba Yetu - Intercâmbio Cultural Brasil e Angola", "premiado": false, "nome_comunidade": "Heliópolis", "localidade": "Sacomã, São Paulo, São Paulo, Brasil", "organizacao": "Kizomba Yetu", "categoria": "Cultura e Memória", "estado": "SP", "municipio": "São Paulo" }, "geometry": { "type": "Point", "coordinates": [ -46.6022, -23.608 ] } },
{ "type": "Feature", "id": 1843, "properties": { "nome_acao": "Oficinas de Cinema nas comunidades", "premiado": false, "nome_comunidade": "Território Indígena Mãe Maria", "localidade": "Bom Jesus do Tocantins, Pará, Brasil", "organizacao": "TOARA", "categoria": "Comunicação, Inclusão Digital e Educação Popular", "estado": "PA", "municipio": "Bom Jesus do Tocantins" }, "geometry": { "type": "Point", "coordinates": [ -48.597836, -5.04718 ] } },
{ "type": "Feature", "id": 1844, "properties": { "nome_acao": "Morada OKENOZUNE", "premiado": false, "nome_comunidade": "Jaraguá", "localidade": "Avenida Jerimanduba 175, São Paulo - São Paulo, 05180-000, Brasil", "organizacao": "Coletivo Matriarcal PanAfricanista Yaa Asantewaa", "categoria": "Planejamento Urbano, Gestão de Riscos e Responsabilidade Climática", "estado": "SP", "municipio": "São Paulo" }, "geometry": { "type": "Point", "coordinates": [ -46.742001, -23.454567 ] } },
{ "type": "Feature", "id": 1845, "properties": { "nome_acao": "Ksarosa", "premiado": false, "nome_comunidade": "Sta Terezinha", "localidade": "Rua Voluntários Da Pátria 1039, Marcílio Dias, Porto Alegre - Rio Grande do Sul, 90230-011, Brasil", "organizacao": "Ksarosa", "categoria": "Acesso à Justiça e Combate às Desigualdades", "estado": "RS", "municipio": "Porto Alegre" }, "geometry": { "type": "Point", "coordinates": [ -51.217573, -30.024939 ] } },
{ "type": "Feature", "id": 1846, "properties": { "nome_acao": "CULTURATORIO. Laboratório de Economia Criativa", "premiado": false, "nome_comunidade": "SÃO JOÃO DA PONTA", "localidade": "Travessa Félix Mauá São João da Ponta - Pará, Brasil", "organizacao": "CULTURATORIO-Laboratório de Economia Criativa", "categoria": "Acesso à Justiça e Combate às Desigualdades", "estado": "PA", "municipio": "São João da Ponta" }, "geometry": { "type": "Point", "coordinates": [ -47.9264517, -0.9231683 ] } },
{ "type": "Feature", "id": 1847, "properties": { "nome_acao": "Restinga falante", "premiado": false, "nome_comunidade": "Lomba do pinheiro", "localidade": "Lomba Do Pinheiro, 91570, Porto Alegre, Rio Grande do Sul, Brasil", "organizacao": "Up", "categoria": "Cultura e Memória", "estado": "RS", "municipio": "Porto Alegre" }, "geometry": { "type": "Point", "coordinates": [ -51.1058, -30.1169 ] } },
{ "type": "Feature", "id": 1848, "properties": { "nome_acao": "Batuque na Cozinha comida da gente contada pela gente", "premiado": false, "nome_comunidade": "inter/multi região = MONGAGUÁ Ã MUSSACEO", "localidade": "Rodovia Padre Manoel Da Nóbrega Mongaguá - São Paulo, Brasil", "organizacao": "EES_AFÈFÈ ODARÁ", "categoria": "Economia Solidária", "estado": "SP", "municipio": "Peruíbe" }, "geometry": { "type": "Point", "coordinates": [ -46.7001708, -24.1318284 ] } },
{ "type": "Feature", "id": 1849, "properties": { "nome_acao": "A ong abc vem desenvolvendo um trabalho a 14 anos tanto no âmbito alimentação quanto na questão da moradia, fazemos reuniões mensalmente com a comunidade, participação em todas de conversas, atendemos a comunidade em situação de vulnerabilidade", "premiado": false, "nome_comunidade": "Vila primeiro de outubro, guaianases, comunidade pé na jaca, cidade Tiradentes, Itaim Paulista, favela morro do acerto", "localidade": "Brasília, Distrito Federal, Brasil", "organizacao": "Ong abc mundo novo", "categoria": "Saúde Integral e Dignidade Humana", "estado": "SP", "municipio": "São Paulo" }, "geometry": { "type": "Point", "coordinates": [ -47.882317, -15.793404 ] } },
{ "type": "Feature", "id": 1850, "properties": { "nome_acao": "Projeto Extensão Desenvolvimento Local Integrado e Sustentavel", "premiado": false, "nome_comunidade": "Povoado Religioso Alto Sao Francisco", "localidade": "São João do Soter, Maranhão, Brasil", "organizacao": "ADAFIBRA", "categoria": "Planejamento Urbano, Gestão de Riscos e Responsabilidade Climática", "estado": "MA", "municipio": "São João do Soter" }, "geometry": { "type": "Point", "coordinates": [ -43.810927, -5.112232 ] } },
{ "type": "Feature", "id": 1851, "properties": { "nome_acao": "Benzedeira e medicina popular", "premiado": false, "nome_comunidade": "Vila formosa", "localidade": "Rua Francisco Fruet 31, Novo Mundo, Curitiba - Paraná, 81050, Brasile", "organizacao": "MTD", "categoria": "Saúde Integral e Dignidade Humana", "estado": "PR", "municipio": "Curitiba" }, "geometry": { "type": "Point", "coordinates": [ -49.309226, -25.485969 ] } },
{ "type": "Feature", "id": 1852, "properties": { "nome_acao": "Conscientização dos populares para Conservação dos recursos naturais para a sustentabilidade entre os mesmos", "premiado": false, "nome_comunidade": "Resex Cururupu", "localidade": "Cururupu, Maranhão, Brasil", "organizacao": "Associação de Moradores da Reserva Extrativista Marinha de Cururupu", "categoria": "Acesso à Justiça e Combate às Desigualdades", "estado": "MA", "municipio": "Cururupu" }, "geometry": { "type": "Point", "coordinates": [ -44.872996, -1.824255 ] } },
{ "type": "Feature", "id": 1853, "properties": { "nome_acao": "CEU pela Vida", "premiado": false, "nome_comunidade": "Zona sul e Central de São Paulo", "localidade": "Rua Itapiru 137, São Paulo - São Paulo, 04143-010, Brasil", "organizacao": "Instituto CEU Estrela Guia", "categoria": "Soberania Alimentar e Nutricional", "estado": "SP", "municipio": "São Paulo" }, "geometry": { "type": "Point", "coordinates": [ -46.636546, -23.613567 ] } },
{ "type": "Feature", "id": 1854, "properties": { "nome_acao": "Associação de Capoeira Identidade Cultural (Ponto de Cultura)", "premiado": false, "nome_comunidade": "Vila Caxias (complexo de bairros)", "localidade": "Além Paraíba, Minas Gerais, Brasil", "organizacao": "Associação de Capoeira Identidade Cultural (Ponto de Cultura)", "categoria": "Cultura e Memória", "estado": "MG", "municipio": "Além Paraíba" }, "geometry": { "type": "Point", "coordinates": [ -42.681047, -21.876058 ] } },
{ "type": "Feature", "id": 1855, "properties": { "nome_acao": "Roda de conversa", "premiado": false, "nome_comunidade": "Terreiro de candomblé Ilê oxum Ominibu", "localidade": "Brasil", "organizacao": "Ilê oxumominibu", "categoria": "Cultura e Memória", "estado": "RJ", "municipio": "Barra Mansa" }, "geometry": { "type": "Point", "coordinates": [ -51.619789020500001, -9.58890301712 ] } },
{ "type": "Feature", "id": 1856, "properties": { "nome_acao": "Onda cultural Litoral", "premiado": false, "nome_comunidade": "Parque dos presentes, Portelinha, farol", "localidade": "Tramandaí, Rio Grande do Sul, 95590, Brasil", "organizacao": "Onda cultural Litoral", "categoria": "Cultura e Memória", "estado": "RS", "municipio": "Tramandaí" }, "geometry": { "type": "Point", "coordinates": [ -50.131774, -29.985715 ] } },
{ "type": "Feature", "id": 1857, "properties": { "nome_acao": "ASSOCIAÇÃO EMPREENDEDORAS RESTINGA", "premiado": false, "nome_comunidade": "RESTINGA", "localidade": "Estrada Barro Vermelho, Restinga, Porto Alegre - Rio Grande do Sul, 91790-100, Brasil", "organizacao": "ASSOCIAÇÃO EMPREENDEDORAS RESTINGA", "categoria": "Economia Solidária", "estado": "RS", "municipio": "Porto Alegre" }, "geometry": { "type": "Point", "coordinates": [ -51.1408437, -30.1637667 ] } },
{ "type": "Feature", "id": 1858, "properties": { "nome_acao": "Fundo de auto gestão comunitário- fapag", "premiado": false, "nome_comunidade": "Conjunto palmeiras", "localidade": "Jangurussu, 60865, Messejana, Fortaleza, Ceará, Brasil", "organizacao": "Cearah periferia", "categoria": "Cultura e Memória", "estado": "CE", "municipio": "Fortaleza" }, "geometry": { "type": "Point", "coordinates": [ -38.52, -3.84 ] } },
{ "type": "Feature", "id": 1859, "properties": { "nome_acao": "Croche arte sustentavel", "premiado": false, "nome_comunidade": "Jd flor de maio", "localidade": "Rua Sempre Viva São Paulo - São Paulo, 02323-000, Brasil", "organizacao": "Croche arte sustentavel", "categoria": "Saúde Integral e Dignidade Humana", "estado": "SP", "municipio": "São Paulo" }, "geometry": { "type": "Point", "coordinates": [ -46.5760931, -23.4345863 ] } },
{ "type": "Feature", "id": 1860, "properties": { "nome_acao": "Museu de Favela - MUF", "premiado": false, "nome_comunidade": "Pavão, Pavãozinho e Cantagalo", "localidade": "Rua Saint Roman 200, Copacabana, Rio de Janeiro - Rio de Janeiro, 22071, Brasil", "organizacao": "Museu de Favela", "categoria": "Cultura e Memória", "estado": "RJ", "municipio": "Rio de Janeiro" }, "geometry": { "type": "Point", "coordinates": [ -43.196081, -22.981906 ] } },
{ "type": "Feature", "id": 1861, "properties": { "nome_acao": "ARTISTAS CANHOTOS", "premiado": false, "nome_comunidade": "FAG NOR E GOJ JUR localizada junto a Estação Rodoviária e junto ao parque da EFRICA, ambos em Passo Fundo", "localidade": "Passo Fundo, Rio Grande do Sul, Brasil", "organizacao": "ARTISTAS CANHOTOS", "categoria": "Acesso à Justiça e Combate às Desigualdades", "estado": "RS", "municipio": "Passo Fundo" }, "geometry": { "type": "Point", "coordinates": [ -52.396661, -28.25506 ] } },
{ "type": "Feature", "id": 1862, "properties": { "nome_acao": "Projeto de capoeira cidadania", "premiado": false, "nome_comunidade": "C.h.Roberto Romano", "localidade": "Rua Inácia Pinto De Campo Santa Bárbara d'Oeste - São Paulo, Brasil", "organizacao": "ASSOCIACAO DE CAPOEIRA MOTTA E CULTURA AFRO - ACMCA", "categoria": "Cultura e Memória", "estado": "SP", "municipio": "Santa Bárbara d'Oeste" }, "geometry": { "type": "Point", "coordinates": [ -47.4181858, -22.7754347 ] } },
{ "type": "Feature", "id": 1863, "properties": { "nome_acao": "CORAL \"EM TOM\" - gRUPO DE DANÇA ITALIANA", "premiado": false, "nome_comunidade": "SALÃO PAROQUIAL DA IGREJA SANTA TERESA D\"ÁVILA", "localidade": "Avenida Assunção Santa Tereza do Oeste - Paraná, 85825-000, Brasil", "organizacao": "..................", "categoria": "Cultura e Memória", "estado": "PR", "municipio": "Santa Tereza do Oeste" }, "geometry": { "type": "Point", "coordinates": [ -53.6216714, -25.0520212 ] } },
{ "type": "Feature", "id": 1864, "properties": { "nome_acao": "Frente juventude vozes das favelas", "premiado": false, "nome_comunidade": "Mocotó", "localidade": "Servidao Do Mocoto, Centro, Florianópolis - Santa Catarina, 88020-200, Brasil", "organizacao": "Frente juventude", "categoria": "Planejamento Urbano, Gestão de Riscos e Responsabilidade Climática", "estado": "SC", "municipio": "Florianópolis" }, "geometry": { "type": "Point", "coordinates": [ -48.544153, -27.6061309 ] } },
{ "type": "Feature", "id": 1865, "properties": { "nome_acao": "Ações coletivas \"construções\" na periferia de Salvador", "premiado": false, "nome_comunidade": "Cajazeiras", "localidade": "Rua Álvaro Da Franca Rocha Salvador - Bahia, 41334, Brasil", "organizacao": "***", "categoria": "Planejamento Urbano, Gestão de Riscos e Responsabilidade Climática", "estado": "BA", "municipio": "Salvador" }, "geometry": { "type": "Point", "coordinates": [ -38.4255027, -12.8976925 ] } },
{ "type": "Feature", "id": 1866, "properties": { "nome_acao": "Sociedade amigos e amigas de Porto Grande", "premiado": false, "nome_comunidade": "Porto Grande", "localidade": "Guarapari, Espírito Santo, Brasil", "organizacao": "Sociedade Amigos e amigas de Porto grande", "categoria": "Cultura e Memória", "estado": "ES", "municipio": "Guarapari" }, "geometry": { "type": "Point", "coordinates": [ -40.498462, -20.671875 ] } },
{ "type": "Feature", "id": 1867, "properties": { "nome_acao": "Gurizada Campeira", "premiado": false, "nome_comunidade": "Morro da Cruz", "localidade": "Travessa Santa Tereza, São José, Porto Alegre - Rio Grande do Sul, 91520-000, Brasil", "organizacao": "***", "categoria": "Cultura e Memória", "estado": "RS", "municipio": "Porto Alegre" }, "geometry": { "type": "Point", "coordinates": [ -51.1601846, -30.0801739 ] } },
{ "type": "Feature", "id": 1868, "properties": { "nome_acao": "Arte Ocupa", "premiado": false, "nome_comunidade": "Mossoró", "localidade": "Beco Mossoro, Petrópolis, Manaus - Amazonas, 69063-000, Brasil", "organizacao": "Arte Ocupa", "categoria": "Cultura e Memória", "estado": "AM", "municipio": "Manaus" }, "geometry": { "type": "Point", "coordinates": [ -59.999886, -3.1105917 ] } },
{ "type": "Feature", "id": 1869, "properties": { "nome_acao": "Associação Cultural Afoxé Omõrisá Odè", "premiado": false, "nome_comunidade": "Granja Lisboa", "localidade": "Rua Geraldo Barbosa, Granja Lisboa, Fortaleza - Ceará, 60543-335, Brasil", "organizacao": "Associação Cultural Afoxé Omõrisá Odè", "categoria": "Cultura e Memória", "estado": "CE", "municipio": "Fortaleza" }, "geometry": { "type": "Point", "coordinates": [ -38.6093137, -3.7894935 ] } },
{ "type": "Feature", "id": 1870, "properties": { "nome_acao": "A importância da Atividades Físico em Pacientes Diabéticos e Hipertensos.", "premiado": false, "nome_comunidade": "Ferro aço", "localidade": "Rua Santa Terezinha Alagoinhas - Bahia, 48000-000, Brasil", "organizacao": "Associação de Diabéticos de Alagoinhas", "categoria": "Saúde Integral e Dignidade Humana", "estado": "BA", "municipio": "Alagoinhas" }, "geometry": { "type": "Point", "coordinates": [ -38.4198766, -12.115681 ] } },
{ "type": "Feature", "id": 1871, "properties": { "nome_acao": "Grupo de Capoeira", "premiado": false, "nome_comunidade": "Comunidade da Fazendinba", "localidade": "Rua Tranquedo Neves Oiapoque - Amapá, Brasil", "organizacao": "Centro Cultural Energia Pura", "categoria": "Cultura e Memória", "estado": "AP", "municipio": "Oiapoque" }, "geometry": { "type": "Point", "coordinates": [ -51.8241197, 3.8428874 ] } },
{ "type": "Feature", "id": 1872, "properties": { "nome_acao": "Oficinas de Artesanato", "premiado": false, "nome_comunidade": "Serginho Ponte e Lava-pés", "localidade": "Baependi, Minas Gerais, Brasil", "organizacao": "Associação dos Produtores Artesanais de Baependi", "categoria": "Cultura e Memória", "estado": "MG", "municipio": "Baependi" }, "geometry": { "type": "Point", "coordinates": [ -44.889925, -21.959162 ] } },
{ "type": "Feature", "id": 1873, "properties": { "nome_acao": "Cozinha Solidária do Bairro Farrapos", "premiado": false, "nome_comunidade": "Bairro Farrapos", "localidade": "Rua Frederico Mentz 460, Farrapos, Porto Alegre - Rio Grande do Sul, 90240-110, Brasil", "organizacao": "Associação DESABAFA", "categoria": "Soberania Alimentar e Nutricional", "estado": "RS", "municipio": "Porto Alegre" }, "geometry": { "type": "Point", "coordinates": [ -51.199236, -29.98733 ] } },
{ "type": "Feature", "id": 1874, "properties": { "nome_acao": "Projeto Subúrbio - Projeto que se dedica na emancipação e fomentação da cultura periférica dando visibilidade aos corpos pretos LGBTQIA+", "premiado": false, "nome_comunidade": "Desenvolvemos em várias comunidades de Vitória entre elas as mais próximas do Centro", "localidade": "Rua Senador Attílio Vivácqua, Centro, Vitória - Espírito Santo, 29015, Brasil", "organizacao": "Projeto Subúrbio", "categoria": "Comunicação, Inclusão Digital e Educação Popular", "estado": "ES", "municipio": "Vitória" }, "geometry": { "type": "Point", "coordinates": [ -40.335524, -20.3213579 ] } },
{ "type": "Feature", "id": 1875, "properties": { "nome_acao": "Associação dos moradores do curió", "premiado": false, "nome_comunidade": "Curió sapiranga", "localidade": "Fortaleza, Ceará, Brasil", "organizacao": "Associação dos moradores do curió", "categoria": "Cultura e Memória", "estado": "CE", "municipio": "Fortaleza" }, "geometry": { "type": "Point", "coordinates": [ -38.521799, -3.730451 ] } },
{ "type": "Feature", "id": 1876, "properties": { "nome_acao": "Rota Cultural Afro Buziana", "premiado": false, "nome_comunidade": "Estamos localizados no bairro da Rasa em Búzios RJ. Um dos maiores quilombos do RJ", "localidade": "Praia Rasa, Pr. Rasa, Armação dos Búzios, Rio de Janeiro, Brasil", "organizacao": "Bonecas Negras", "categoria": "Economia Solidária", "estado": "RJ", "municipio": "Armação de Búzios" }, "geometry": { "type": "Point", "coordinates": [ -41.945393, -22.755248 ] } },
{ "type": "Feature", "id": 1877, "properties": { "nome_acao": "Espaço Cultural Becos e Vielas", "premiado": false, "nome_comunidade": "JD. Record", "localidade": "Taboão da Serra, São Paulo, Brasil", "organizacao": "Espaço Cultural Becos e Vielas", "categoria": "Cultura e Memória", "estado": "SP", "municipio": "Taboão da Serra" }, "geometry": { "type": "Point", "coordinates": [ -46.779054, -23.612191 ] } },
{ "type": "Feature", "id": 1878, "properties": { "nome_acao": "Capoeira Angola - Associação de Capoeira Angola Zumbi dos Palmares", "premiado": false, "nome_comunidade": "Mato Sampaio", "localidade": "Rua Oito 200, Bom Jesus, Porto Alegre - Rio Grande do Sul, 91420-000, Brasil", "organizacao": "Associação de Capoeira Angola Zumbi dos Palmares", "categoria": "Cultura e Memória", "estado": "RS", "municipio": "Porto Alegre" }, "geometry": { "type": "Point", "coordinates": [ -51.161322, -30.051037 ] } },
{ "type": "Feature", "id": 1879, "properties": { "nome_acao": "Periferia em Foco / Mídia comunitária", "premiado": false, "nome_comunidade": "Bairro da Cabanagem", "localidade": "Rua Do Benjamin, Cabanagem, Belém - Pará, 66625-410, Brasil", "organizacao": "Periferia em Foco", "categoria": "Comunicação, Inclusão Digital e Educação Popular", "estado": "PA", "municipio": "Belém" }, "geometry": { "type": "Point", "coordinates": [ -48.428739, -1.3693055 ] } },
{ "type": "Feature", "id": 1880, "properties": { "nome_acao": "Coletivo Quilombelas", "premiado": false, "nome_comunidade": "Bairro Restinga", "localidade": "Restinga, 91790, Porto Alegre, Rio Grande do Sul, Brasil", "organizacao": "Coletivo Quilombelas", "categoria": "Comunicação, Inclusão Digital e Educação Popular", "estado": "RS", "municipio": "Porto Alegre" }, "geometry": { "type": "Point", "coordinates": [ -51.1449, -30.1528 ] } },
{ "type": "Feature", "id": 1881, "properties": { "nome_acao": "Cuidados com saúde, doação de cestas, educação ambiental", "premiado": false, "nome_comunidade": "Regiçao Noroeste de Goiânia", "localidade": "Rua I Goiânia - Goiás, 74555-050, Brazil", "organizacao": "Associação de Educação Cultura e Cidadania - ADEC", "categoria": "Saúde Integral e Dignidade Humana", "estado": "GO", "municipio": "Goiânia" }, "geometry": { "type": "Point", "coordinates": [ -49.2831502, -16.6573955 ] } },
{ "type": "Feature", "id": 1882, "properties": { "nome_acao": "Reforço Escola Afrocentrado e Tambores da Maloca", "premiado": false, "nome_comunidade": "Comunidade Maloca", "localidade": "Travessa Comunidade Da Maloca, Getúlio Vargas, Aracaju - Sergipe, 48055, Brasil", "organizacao": "Associação da Comunidade Quilombo Maloca", "categoria": "Cultura e Memória", "estado": "SE", "municipio": "Aracaju" }, "geometry": { "type": "Point", "coordinates": [ -37.0608558, -10.9132983 ] } },
{ "type": "Feature", "id": 1883, "properties": { "nome_acao": "Memorias vivas das (o) mestre da cultura popular", "premiado": false, "nome_comunidade": "Comunidade Territorial quilombola Crioulo", "localidade": "Lagarto, Sergipe, Brasil", "organizacao": "Associação  Territorial Quilombolas Mestre Primo", "categoria": "Soberania Alimentar e Nutricional", "estado": "SE", "municipio": "Lagarto" }, "geometry": { "type": "Point", "coordinates": [ -37.671531, -10.914179 ] } },
{ "type": "Feature", "id": 1884, "properties": { "nome_acao": "NÓS POR ELES", "premiado": false, "nome_comunidade": "Associação da Paz", "localidade": "Ananindeua, Pará, Brasil", "organizacao": "ALIEB", "categoria": "Acesso à Justiça e Combate às Desigualdades", "estado": "PA", "municipio": "Ananindeua" }, "geometry": { "type": "Point", "coordinates": [ -48.401662, -1.374035 ] } },
{ "type": "Feature", "id": 1885, "properties": { "nome_acao": "Associação Comunitária sociocultural da Picada", "premiado": false, "nome_comunidade": "Picadas", "localidade": "Comunidade Picada Ipanguaçu - Rio Grande do Norte, Brasil", "organizacao": "Associação Comunitária sociocultural da Picada", "categoria": "Soberania Alimentar e Nutricional", "estado": "RN", "municipio": "Ipanguaçu" }, "geometry": { "type": "Point", "coordinates": [ -36.799315, -5.526425 ] } },
{ "type": "Feature", "id": 1886, "properties": { "nome_acao": "Coletivo Dancê Art", "premiado": false, "nome_comunidade": "Bom Jesus, Restinga e Centro de Porto alegre", "localidade": "Escola de Samba Copacabana, Porto Alegre, Rio Grande do Sul 91420, Brasil", "organizacao": "Coletivo Dancê Art", "categoria": "Cultura e Memória", "estado": "RS", "municipio": "Porto Alegre" }, "geometry": { "type": "Point", "coordinates": [ -51.153764, -30.042468 ] } },
{ "type": "Feature", "id": 1887, "properties": { "nome_acao": "Grupo de Estudo sobre Educação para as Relações Anti Raciais na Educação Infantil", "premiado": false, "nome_comunidade": "Universidade", "localidade": "UFC - Centro de Humanidades I, Av. da Universidade, 2683, Fortaleza, Ceará 60020, Brasil", "organizacao": "Grupo de Estudo", "categoria": "Acesso à Justiça e Combate às Desigualdades", "estado": "CE", "municipio": "Fortaleza" }, "geometry": { "type": "Point", "coordinates": [ -38.53888575, -3.740856 ] } },
{ "type": "Feature", "id": 1888, "properties": { "nome_acao": "Ilê Axé Reino de Oxum Epandá e Xapanã  / Projeto Orumalé Sagrado Pelotas", "premiado": false, "nome_comunidade": "Três vendas", "localidade": "Pelotas, Rio Grande do Sul, Brasil", "organizacao": "Ilê Axé Reino de Oxum Epandá e Xapanã Jubetei/Projeto Orumalé Sagrado Pelotas", "categoria": "Planejamento Urbano, Gestão de Riscos e Responsabilidade Climática", "estado": "RS", "municipio": "Pelotas" }, "geometry": { "type": "Point", "coordinates": [ -52.341016, -31.769974 ] } },
{ "type": "Feature", "id": 1889, "properties": { "nome_acao": "OSC unidos e solidários - terceiro setor", "premiado": false, "nome_comunidade": "Bairro sarandi", "localidade": "Rua Jackson De Figueiredo, Sarandi, Porto Alegre - Rio Grande do Sul, 91120-380, Brasil", "organizacao": "OSC unidos e solidários", "categoria": "Soberania Alimentar e Nutricional", "estado": "RS", "municipio": "Porto Alegre" }, "geometry": { "type": "Point", "coordinates": [ -51.1279957, -29.9863834 ] } },
{ "type": "Feature", "id": 1890, "properties": { "nome_acao": "Aulas de reforço escolar", "premiado": false, "nome_comunidade": "Vila Vale do Salso- bairro Restinga", "localidade": "Porto Alegre, Rio Grande do Sul, Brasil", "organizacao": "Associação de Moradores do Vale do Salso- AMOVAS", "categoria": "Comunicação, Inclusão Digital e Educação Popular", "estado": "RS", "municipio": "Porto Alegre" }, "geometry": { "type": "Point", "coordinates": [ -51.230377, -30.0325 ] } },
{ "type": "Feature", "id": 1891, "properties": { "nome_acao": "Futebol amador, orquestra de frevo, atividades de cultura e pedagogicas atividades de saúde e profissionalizante etc.", "premiado": false, "nome_comunidade": "Parque Capibaribe, Várzea Fria, Centro", "localidade": "São Lourenço da Mata, Pernambuco, Brasil", "organizacao": "Movimento Popular do Parque Capibaribe", "categoria": "Cultura e Memória", "estado": "PE", "municipio": "São Lourenço da Mata" }, "geometry": { "type": "Point", "coordinates": [ -35.039335, -7.995961 ] } },
{ "type": "Feature", "id": 1892, "properties": { "nome_acao": "Kurta na Kombi", "premiado": false, "nome_comunidade": "Jardim Progresso", "localidade": "Natal, Rio Grande do Norte, Brasil", "organizacao": "***", "categoria": "Cultura e Memória", "estado": "RN", "municipio": "Natal" }, "geometry": { "type": "Point", "coordinates": [ -35.208091, -5.805398 ] } },
{ "type": "Feature", "id": 1893, "properties": { "nome_acao": "Artístico Ciltural", "premiado": false, "nome_comunidade": "Brasília e RAs.", "localidade": "Brasília, Distrito Federal, Brasil", "organizacao": "***", "categoria": "Cultura e Memória", "estado": "DF", "municipio": "Taguatinga" }, "geometry": { "type": "Point", "coordinates": [ -47.882317, -15.793404 ] } },
{ "type": "Feature", "id": 1894, "properties": { "nome_acao": "EXTENSÃO UNIVERSITÁRIA: EDUCAÇÃO POPULAR E DIREITOS HUMANOS", "premiado": false, "nome_comunidade": "FAMILIAS ANTINGIDAS PELO PROGRAMA LAGOAS DO NORTE E INDÍGENAS WARAO REFUGIADOS EM TERESINA (PI)", "localidade": "Teresina, Piauí, Brasil", "organizacao": "PROGRAMA DE EXTENSÃO UNIVERSITÁRIA EDUCAÇÃO POPULAR E DIREITOS HUMANOS", "categoria": "Acesso à Justiça e Combate às Desigualdades", "estado": "PI", "municipio": "Teresina" }, "geometry": { "type": "Point", "coordinates": [ -42.809588, -5.08964 ] } },
{ "type": "Feature", "id": 1895, "properties": { "nome_acao": "Garagens Periféricas", "premiado": false, "nome_comunidade": "Garagens residenciais na poesia de grandes cidades e cidades pequenas do interior do Brasil", "localidade": "Rua Frei Orlando 148, Santo André, Belo Horizonte - Minas Gerais, 31230-120, Brasil", "organizacao": "Ateliê Titetê", "categoria": "Cultura e Memória", "estado": "MG", "municipio": "Belo Horizonte" }, "geometry": { "type": "Point", "coordinates": [ -43.957627, -19.904239 ] } },
{ "type": "Feature", "id": 1896, "properties": { "nome_acao": "Pavilhão Eco Sustentavel da Cultura Hip-Hop e dos Esportes Radicais", "premiado": false, "nome_comunidade": "Restinga", "localidade": "Rua Imperador Hiroito 385, Restinga, Porto Alegre - Rio Grande do Sul, 91791-500, Brasil", "organizacao": "Federação gaúcha de Breaking RS", "categoria": "Cultura e Memória", "estado": "RS", "municipio": "Porto Alegre" }, "geometry": { "type": "Point", "coordinates": [ -51.136462, -30.146637 ] } },
{ "type": "Feature", "id": 1897, "properties": { "nome_acao": "Cine de Quebrada", "premiado": false, "nome_comunidade": "Brasília Teimosa, Maruim, Mãe Luiza, Passo da Pátria, Felipe Camarão, Favela do Detran, Favela da África, Rocas.", "localidade": "Natal, Rio Grande do Norte, Brasil", "organizacao": "Brota - Movimento de Ações Populares", "categoria": "Comunicação, Inclusão Digital e Educação Popular", "estado": "RN", "municipio": "Natal" }, "geometry": { "type": "Point", "coordinates": [ -35.208091, -5.805398 ] } },
{ "type": "Feature", "id": 1898, "properties": { "nome_acao": "ClubeDeFavelaWord", "premiado": false, "nome_comunidade": "Samambaia-DF", "localidade": "Distrito Federal, Brasil", "organizacao": "ClubeDeFavelaWord", "categoria": "Comunicação, Inclusão Digital e Educação Popular", "estado": "DF", "municipio": "Samambaia" }, "geometry": { "type": "Point", "coordinates": [ -47.790561198, -15.6845683816 ] } },
{ "type": "Feature", "id": 1899, "properties": { "nome_acao": "Cultura Periferica", "premiado": false, "nome_comunidade": "Chapadão", "localidade": "Anchieta, 21645, Rio de Janeiro, Rio de Janeiro, Brasil", "organizacao": "BibliotecaAmarela", "categoria": "Acesso à Justiça e Combate às Desigualdades", "estado": "RJ", "municipio": "Rio de Janeiro" }, "geometry": { "type": "Point", "coordinates": [ -43.3991, -22.8232 ] } },
{ "type": "Feature", "id": 1900, "properties": { "nome_acao": "Educação Popular de Base", "premiado": false, "nome_comunidade": "Cpx Roseiral", "localidade": "DEGASE-CAI BAIXADA, Rua Begônias, Belford Roxo, Rio de Janeiro 26110, Brasil", "organizacao": "Educação Popular de Base", "categoria": "Acesso à Justiça e Combate às Desigualdades", "estado": "RJ", "municipio": "Belford Roxo" }, "geometry": { "type": "Point", "coordinates": [ -43.365645, -22.760278 ] } },
{ "type": "Feature", "id": 1901, "properties": { "nome_acao": "Organização Humanitária Periferia Tem Vez", "premiado": false, "nome_comunidade": "Comunidade do Riacho Doce", "localidade": "Avenida Tucunduba, Guamá, Belém - Pará, 66073-040, Brasil", "organizacao": "Organização Humanitária Periferia Tem Vez", "categoria": "Economia Solidária", "estado": "PA", "municipio": "Belém" }, "geometry": { "type": "Point", "coordinates": [ -48.4546372, -1.4662271 ] } },
{ "type": "Feature", "id": 1902, "properties": { "nome_acao": "Ninguém Vai Passar Fome", "premiado": false, "nome_comunidade": "Pessoas em situação de rua", "localidade": "Canoas, Rio Grande do Sul, Brasil", "organizacao": "Centro Espiritualista Reino de Daomé", "categoria": "Soberania Alimentar e Nutricional", "estado": "RS", "municipio": "Canoas" }, "geometry": { "type": "Point", "coordinates": [ -51.179953, -29.921604 ] } },
{ "type": "Feature", "id": 1903, "properties": { "nome_acao": "Descanse O Gatilho", "premiado": false, "nome_comunidade": "Vila dos Papeleiros", "localidade": "Rua Voluntários Da Pátria 1856, Floresta, Porto Alegre - Rio Grande do Sul, 90230-011, Brasil", "organizacao": "Arca Sete produções e Eventos", "categoria": "Acesso à Justiça e Combate às Desigualdades", "estado": "RS", "municipio": "Porto Alegre" }, "geometry": { "type": "Point", "coordinates": [ -51.212977, -30.016652 ] } },
{ "type": "Feature", "id": 1904, "properties": { "nome_acao": "Programa Mulheres do Sol", "premiado": false, "nome_comunidade": "Sol Nascente/ Pôr do Sol", "localidade": "Sh Sol Nascente Brasília - Distrito Federal, 72236-800, Brasil", "organizacao": "Centro de Preservação e Conservação Ambiental -casa da natureza", "categoria": "Planejamento Urbano, Gestão de Riscos e Responsabilidade Climática", "estado": "DF", "municipio": "Ceilândia" }, "geometry": { "type": "Point", "coordinates": [ -48.1207958, -15.8345591 ] } },
{ "type": "Feature", "id": 1905, "properties": { "nome_acao": "Workshop de dança", "premiado": false, "nome_comunidade": "Restinga,Campo novo,Teresópolis, Centro, cidade baixa", "localidade": "Porto Alegre, Rio Grande do Sul, Brasil", "organizacao": "Daredevils old school", "categoria": "Cultura e Memória", "estado": "RS", "municipio": "Porto Alegre" }, "geometry": { "type": "Point", "coordinates": [ -51.230377, -30.0325 ] } },
{ "type": "Feature", "id": 1906, "properties": { "nome_acao": "Batalha do Trash Park RF1", "premiado": false, "nome_comunidade": "Trash Park", "localidade": "Feira Permanente Riacho Fundo I, Brasília, Federal District 71810, Brazil", "organizacao": "Trash Park", "categoria": "Cultura e Memória", "estado": "DF", "municipio": "Brasília" }, "geometry": { "type": "Point", "coordinates": [ -48.015813, -15.88267 ] } },
{ "type": "Feature", "id": 1907, "properties": { "nome_acao": "Lazer das Quebradas", "premiado": false, "nome_comunidade": "Todas as regiões administrativas do Distrito Federal", "localidade": "Distrito Federal, Brasil", "organizacao": "MUB PRODUTORA", "categoria": "Comunicação, Inclusão Digital e Educação Popular", "estado": "DF", "municipio": "Ceilândia" }, "geometry": { "type": "Point", "coordinates": [ -47.790561198, -15.6845683816 ] } },
{ "type": "Feature", "id": 1908, "properties": { "nome_acao": "Ponto de Cultura Fuá de Quintal", "premiado": false, "nome_comunidade": "Céu Azul", "localidade": "Rua Radialista Orlando Arcanjo 27, Céu Azul, Belo Horizonte - Minas Gerais, 31578-560, Brasil", "organizacao": "Ponto de Cultura Fuá de Quintal", "categoria": "Cultura e Memória", "estado": "MG", "municipio": "Belo Horizonte" }, "geometry": { "type": "Point", "coordinates": [ -44.001827, -19.816961 ] } },
{ "type": "Feature", "id": 1909, "properties": { "nome_acao": "Madre Tierra Comunidade Aprendente", "premiado": false, "nome_comunidade": "Lami", "localidade": "Lami, 91787, Porto Alegre, Rio Grande do Sul, Brasil", "organizacao": "Madre Tierra.Poiesis Comunidade Aprendente", "categoria": "Soberania Alimentar e Nutricional", "estado": "RS", "municipio": "Porto Alegre" }, "geometry": { "type": "Point", "coordinates": [ -51.0831, -30.2413 ] } },
{ "type": "Feature", "id": 1910, "properties": { "nome_acao": "Compartilhando a gente cresce juntos", "premiado": false, "nome_comunidade": "Bairro Gaspar", "localidade": "Muriaé, Minas Gerais, Brasil", "organizacao": "Coletivo Ser Feliz é Saber Viver", "categoria": "Cultura e Memória", "estado": "MG", "municipio": "Muriaé" }, "geometry": { "type": "Point", "coordinates": [ -42.366389, -21.130556 ] } },
{ "type": "Feature", "id": 1911, "properties": { "nome_acao": "ACEESCULT", "premiado": false, "nome_comunidade": "ACEESCULT", "localidade": "Timon, Maranhão, Brasil", "organizacao": "ACEESCULT", "categoria": "Economia Solidária", "estado": "MA", "municipio": "Timon" }, "geometry": { "type": "Point", "coordinates": [ -42.844952, -5.102332 ] } },
{ "type": "Feature", "id": 1912, "properties": { "nome_acao": "Cultura Negra", "premiado": false, "nome_comunidade": "Vila Ré", "localidade": "Rua Moé 438, São Paulo - São Paulo, 03660-040, Brasil", "organizacao": "Ile Iya Ode Ase Alaafin Oyo", "categoria": "Cultura e Memória", "estado": "SP", "municipio": "São Paulo" }, "geometry": { "type": "Point", "coordinates": [ -46.506191, -23.522694 ] } },
{ "type": "Feature", "id": 1913, "properties": { "nome_acao": "Lgbtqiap+", "premiado": false, "nome_comunidade": "Lgbtqiap+", "localidade": "Monteiro, Paraíba, Brasil", "organizacao": "Uniao popular", "categoria": "Acesso à Justiça e Combate às Desigualdades", "estado": "PB", "municipio": "Monteiro" }, "geometry": { "type": "Point", "coordinates": [ -37.123205, -7.892018 ] } },
{ "type": "Feature", "id": 1914, "properties": { "nome_acao": "Oficina de Breaking (se tornando um breakers ) uma modalidade do Hip Hop e tbm agora olímpica! Tenho o projeto Os Sonhadores", "premiado": false, "nome_comunidade": "Junivo Sobreira", "localidade": "São Sebastião de Lagoa de Roça, Paraíba, Brasil", "organizacao": "Roça City Breakers", "categoria": "Cultura e Memória", "estado": "PB", "municipio": "São Sebastião de Lagoa de Roça" }, "geometry": { "type": "Point", "coordinates": [ -35.867966, -7.105167 ] } },
{ "type": "Feature", "id": 1915, "properties": { "nome_acao": "Radar de Territórios", "premiado": false, "nome_comunidade": "Administração Regional do Sol Nascente DF", "localidade": "Sh Sol Nascente Brasília - Distrito Federal, 72236-800, Brasil", "organizacao": "Colaboratório CTIS da Fiocruz", "categoria": "Saúde Integral e Dignidade Humana", "estado": "DF", "municipio": "Ceilândia" }, "geometry": { "type": "Point", "coordinates": [ -48.1318532, -15.8242445 ] } },
{ "type": "Feature", "id": 1916, "properties": { "nome_acao": "ONDANEGRA", "premiado": false, "nome_comunidade": "Ceilândia", "localidade": "Distrito Federal, Brasil", "organizacao": "ONDANEGRA", "categoria": "Cultura e Memória", "estado": "DF", "municipio": "Ceilândia" }, "geometry": { "type": "Point", "coordinates": [ -47.790561198, -15.6845683816 ] } },
{ "type": "Feature", "id": 1917, "properties": { "nome_acao": "MTD movimento das trabalhadoras e dos trabalhadores por direitos", "premiado": false, "nome_comunidade": "Comunidade são Francisco", "localidade": "Matinhas - PB, Matinhas, Paraíba, Brasil", "organizacao": "Cebs comunidade eclesial de base e associação da economia solidária popular", "categoria": "Planejamento Urbano, Gestão de Riscos e Responsabilidade Climática", "estado": "PB", "municipio": "Matinhas" }, "geometry": { "type": "Point", "coordinates": [ -35.7716705, -7.121998 ] } },
{ "type": "Feature", "id": 1918, "properties": { "nome_acao": "Projeto RAP (Ressocialização, Autonomia e Protagonismo)", "premiado": false, "nome_comunidade": "Comunidade Escolar do Núcleo de ensino da Unidade de Internação de Santa Maria", "localidade": "Unidade de Internação de Santa Maria, Brasília, Distrito Federal 72551, Brasil", "organizacao": "Projeto RAP (Ressocialização, Autonomia e Protagonismo)", "categoria": "Acesso à Justiça e Combate às Desigualdades", "estado": "DF", "municipio": "Santa Maria" }, "geometry": { "type": "Point", "coordinates": [ -48.023677, -16.016026 ] } },
{ "type": "Feature", "id": 1919, "properties": { "nome_acao": "Projeto social favela de ouro", "premiado": false, "nome_comunidade": "Cidade estrutural/ Santa Luzia", "localidade": "Brasília, Distrito Federal, Brasil", "organizacao": "Projeto social favela de ouro", "categoria": "Comunicação, Inclusão Digital e Educação Popular", "estado": "DF", "municipio": "Guará" }, "geometry": { "type": "Point", "coordinates": [ -47.882317, -15.793404 ] } },
{ "type": "Feature", "id": 1920, "properties": { "nome_acao": "Instituto Social comunitário arraial da glória", "premiado": false, "nome_comunidade": "Cascata", "localidade": "Rua Santiago Dantas 08, Cascata, Porto Alegre - Rio Grande do Sul, 91710-003, Brasil", "organizacao": "Instituto Social comunitário arraial da glória", "categoria": "Planejamento Urbano, Gestão de Riscos e Responsabilidade Climática", "estado": "RS", "municipio": "Porto Alegre" }, "geometry": { "type": "Point", "coordinates": [ -51.195078, -30.079142 ] } },
{ "type": "Feature", "id": 1921, "properties": { "nome_acao": "Alfabetização de jovens adultos e idosos , artesanato e atividades com grupos de mulheres", "premiado": false, "nome_comunidade": "Itapoa Doroty Café sem troco St Maria", "localidade": "Conjunto B 01, Brasília - Distrito Federal, 73084-010, Brasil", "organizacao": "Movimento de educação de Base", "categoria": "Acesso à Justiça e Combate às Desigualdades", "estado": "DF", "municipio": "Brasília" }, "geometry": { "type": "Point", "coordinates": [ -47.848887, -15.637736 ] } },
{ "type": "Feature", "id": 1922, "properties": { "nome_acao": "Cine Goto Seco", "premiado": false, "nome_comunidade": "Novos Tempos", "localidade": "Ceará-Mirim, Rio Grande do Norte, Brasil", "organizacao": "Movimento Alternativo Goto Seco", "categoria": "Comunicação, Inclusão Digital e Educação Popular", "estado": "RN", "municipio": "Ceará-Mirim" }, "geometry": { "type": "Point", "coordinates": [ -35.424841, -5.633588 ] } },
{ "type": "Feature", "id": 1923, "properties": { "nome_acao": "Campanha chega de papelão queremos habitação", "premiado": false, "nome_comunidade": "População em situação de rua sc", "localidade": "Brasil", "organizacao": "Movimento nacional da população em situação de rua do estado de Santa Catarina", "categoria": "Planejamento Urbano, Gestão de Riscos e Responsabilidade Climática", "estado": "SC", "municipio": "Florianópolis" }, "geometry": { "type": "Point", "coordinates": [ -51.619789020500001, -9.58890301712 ] } },
{ "type": "Feature", "id": 1924, "properties": { "nome_acao": "Assistencialismo e práticas ambientais", "premiado": false, "nome_comunidade": "Pantanal", "localidade": "Aracaju, Sergipe, Brasil", "organizacao": "Associação comunitária social Jardim Esperança", "categoria": "Soberania Alimentar e Nutricional", "estado": "SE", "municipio": "Aracaju" }, "geometry": { "type": "Point", "coordinates": [ -37.077466, -10.916206 ] } },
{ "type": "Feature", "id": 1925, "properties": { "nome_acao": "Museu comunitário direito ao território", "premiado": false, "nome_comunidade": "Comunidade Boa Esperança São Joaquim", "localidade": "Rua 5, São Joaquim, Teresina - Piauí, Brasil", "organizacao": "Centro de defesa Ferreira de Souza", "categoria": "Acesso à Justiça e Combate às Desigualdades", "estado": "PI", "municipio": "Teresina" }, "geometry": { "type": "Point", "coordinates": [ -42.8362472, -5.0607674 ] } },
{ "type": "Feature", "id": 1926, "properties": { "nome_acao": "Social", "premiado": false, "nome_comunidade": "COMUNIDADE DA CIDADE ESTRUTURAL", "localidade": "Brasília, Distrito Federal, Brasil", "organizacao": "Associação Art e Vida", "categoria": "Soberania Alimentar e Nutricional", "estado": "DF", "municipio": "Brasília" }, "geometry": { "type": "Point", "coordinates": [ -47.882317, -15.793404 ] } },
{ "type": "Feature", "id": 1928, "properties": { "nome_acao": "Centro comunitário Mário Andrade", "premiado": false, "nome_comunidade": "Comunidade paz e amor", "localidade": "Rua Professor José Brasileiro Vila Nova, Ibura, Recife - Pernambuco, 51220, Brasil", "organizacao": "Centro comunitário Mário Andrade", "categoria": "Planejamento Urbano, Gestão de Riscos e Responsabilidade Climática", "estado": "PE", "municipio": "Recife" }, "geometry": { "type": "Point", "coordinates": [ -34.9295824, -8.1142225 ] } },
{ "type": "Feature", "id": 1929, "properties": { "nome_acao": "Escola de Capoeira Angola", "premiado": false, "nome_comunidade": "Mercado Sul", "localidade": "Qsb 13 Brasília - Distrito Federal, 72015-630, Brasil", "organizacao": "Escola de Capoeira Angola Cultura Popular", "categoria": "Cultura e Memória", "estado": "DF", "municipio": "Taguatinga" }, "geometry": { "type": "Point", "coordinates": [ -48.0531943, -15.8411348 ] } },
{ "type": "Feature", "id": 1930, "properties": { "nome_acao": "Artes nas favelas", "premiado": false, "nome_comunidade": "Chapadao", "localidade": "Rio de Janeiro, Rio de Janeiro, Brasil", "organizacao": "Artes nas favelas", "categoria": "Economia Solidária", "estado": "RJ", "municipio": "Rio de Janeiro" }, "geometry": { "type": "Point", "coordinates": [ -43.209373, -22.911014 ] } },
{ "type": "Feature", "id": 1931, "properties": { "nome_acao": "parceiros na Literatura", "premiado": false, "nome_comunidade": "Várias comunidades", "localidade": "Rua Canuto Luiz Do Nascimento São Paulo - São Paulo, 05850-140, Brasil", "organizacao": "Parceiros na Literatura", "categoria": "Comunicação, Inclusão Digital e Educação Popular", "estado": "SP", "municipio": "São Paulo" }, "geometry": { "type": "Point", "coordinates": [ -46.7530797, -23.6549154 ] } },
{ "type": "Feature", "id": 1932, "properties": { "nome_acao": "AMUTAM", "premiado": false, "nome_comunidade": "TAMOIOS, SEGUNDAO DISTRITO DE CABO FRIOA", "localidade": "Rua Cabo Frio 30, Cabo Frio - Rio de Janeiro, 28927-000, Brasil", "organizacao": "AMUTAM- ASSOCIAÇÃO DAS MULHERES DE TAMOIOS", "categoria": "Acesso à Justiça e Combate às Desigualdades", "estado": "RJ", "municipio": "Cabo Frio" }, "geometry": { "type": "Point", "coordinates": [ -42.004811, -22.619173 ] } },
{ "type": "Feature", "id": 1933, "properties": { "nome_acao": "Kizomba da maloca", "premiado": false, "nome_comunidade": "Quilombo urbano Maloca", "localidade": "Aracaju, Sergipe, Brasil", "organizacao": "Áxó BÁRÁ", "categoria": "Cultura e Memória", "estado": "SE", "municipio": "Aracaju" }, "geometry": { "type": "Point", "coordinates": [ -37.077466, -10.916206 ] } },
{ "type": "Feature", "id": 1934, "properties": { "nome_acao": "Cozinha Solidária do Quilombo da Gamboa", "premiado": false, "nome_comunidade": "Quilombo da Gamboa", "localidade": "Santo Cristo, 20220, Rio de Janeiro, Rio de Janeiro, Brasil", "organizacao": "Central de Movimentos Populares", "categoria": "Soberania Alimentar e Nutricional", "estado": "RJ", "municipio": "Rio de Janeiro" }, "geometry": { "type": "Point", "coordinates": [ -43.2034, -22.9008 ] } },
{ "type": "Feature", "id": 1935, "properties": { "nome_acao": "Geração Cidadã de Dados (ex: https://cocozap.datalabe.org/)", "premiado": false, "nome_comunidade": "Complexo da Maré", "localidade": "Rua Sete De Março 105, Maré, Rio de Janeiro - Rio de Janeiro, 21043, Brasil", "organizacao": "data_labe", "categoria": "Comunicação, Inclusão Digital e Educação Popular", "estado": "RJ", "municipio": "Rio de Janeiro" }, "geometry": { "type": "Point", "coordinates": [ -43.246941, -22.859649 ] } },
{ "type": "Feature", "id": 1936, "properties": { "nome_acao": "Aldeia Hip Hop - Casa do Hip Hop Cearense", "premiado": false, "nome_comunidade": "Nova Metrópole", "localidade": "Rua 210, Nova Metrópole, Caucaia - Ceará, 61600-000, Brasil", "organizacao": "Aldeia Hip Hop / CGC", "categoria": "Saúde Integral e Dignidade Humana", "estado": "CE", "municipio": "Caucaia" }, "geometry": { "type": "Point", "coordinates": [ -38.657898, -3.7656855 ] } },
{ "type": "Feature", "id": 1937, "properties": { "nome_acao": "INSTITUTO MISSÃO ROCINHA ATUAMOS NA MELHORIA DA QUALIDADE DE VIDA. ATUAMOS PARA O BEM ESTÁ DAS FAMÍLIAS DA ROCNHA", "premiado": false, "nome_comunidade": "ROCINHA", "localidade": "Favela, Rocinha - R. Bertha Lutz - Gávea, Rio de Janeiro, Rio de Janeiro 22451, Brasil", "organizacao": "INSTITUTO MISSÃO ROCINHA", "categoria": "Economia Solidária", "estado": "RJ", "municipio": "Rio de Janeiro" }, "geometry": { "type": "Point", "coordinates": [ -43.245235, -22.989275 ] } },
{ "type": "Feature", "id": 1938, "properties": { "nome_acao": "Filó Incubadora Cultural - Ponto de Cultura", "premiado": false, "nome_comunidade": "Caravelas", "localidade": "Ipatinga, Minas Gerais, Brasil", "organizacao": "Filó Incubadora Cultural - Ponto de Cultura", "categoria": "Cultura e Memória", "estado": "MG", "municipio": "Ipatinga" }, "geometry": { "type": "Point", "coordinates": [ -42.52708, -19.477781 ] } },
{ "type": "Feature", "id": 1939, "properties": { "nome_acao": "Associação de Mulheres Maria da Glória", "premiado": false, "nome_comunidade": "Morro da Cruz, Vila São José", "localidade": "São José, 91520, Porto Alegre, Rio Grande do Sul, Brasil", "organizacao": "Associação de Mulheres Maria da Glória", "categoria": "Soberania Alimentar e Nutricional", "estado": "RS", "municipio": "Porto Alegre" }, "geometry": { "type": "Point", "coordinates": [ -51.1664, -30.0672 ] } },
{ "type": "Feature", "id": 1940, "properties": { "nome_acao": "Coletivo Preta Velha", "premiado": false, "nome_comunidade": "Vila Cruzeiro", "localidade": "Cruzeiro, Porto Alegre, Rio Grande do Sul 90850, Brasil", "organizacao": "***", "categoria": "Soberania Alimentar e Nutricional", "estado": "RS", "municipio": "Porto Alegre" }, "geometry": { "type": "Point", "coordinates": [ -51.216687, -30.069823 ] } },
{ "type": "Feature", "id": 1941, "properties": { "nome_acao": "Rede Potências Periféricas", "premiado": false, "nome_comunidade": "Atuamos em toda cidade, pois a rede é composta por coletivos e organizações dos vários territórios periféricos da cidade", "localidade": "Avenida Coronel Sezefredo Fagundes São Paulo - São Paulo, 02306, Brasil", "organizacao": "Rede Potências Periféricas", "categoria": "Comunicação, Inclusão Digital e Educação Popular", "estado": "SP", "municipio": "São Paulo" }, "geometry": { "type": "Point", "coordinates": [ -46.592607393800002, -23.4350262 ] } },
{ "type": "Feature", "id": 1942, "properties": { "nome_acao": "Feira Integrada de São Gonçalo", "premiado": false, "nome_comunidade": "Feira Integrada de São Gonçalo- FISG", "localidade": "São Gonçalo, Rio de Janeiro, Brasil", "organizacao": "Feira Integrada de São Gonçalo", "categoria": "Cultura e Memória", "estado": "RJ", "municipio": "São Gonçalo" }, "geometry": { "type": "Point", "coordinates": [ -43.030925, -22.821901 ] } },
{ "type": "Feature", "id": 1943, "properties": { "nome_acao": "tttt", "premiado": false, "nome_comunidade": "tttttt", "localidade": "Jovem de Expressão, EQNM 18/20, Pç. do Cidadão, Brasília, Federal District 72210, Brazil", "organizacao": "***", "categoria": "Cultura e Memória", "estado": "DF", "municipio": "Ceilândia" }, "geometry": { "type": "Point", "coordinates": [ -48.103284, -15.812869 ] } },
{ "type": "Feature", "id": 1945, "properties": { "nome_acao": "LUTA POR MORADIA POPLAR URBANA E RURAL", "premiado": false, "nome_comunidade": "OCPAÇÃO DA FAZ MEREM, OCPAÇÃO DA IMBRINHA,OCPAÇÃO DA FAZ.CASTELO,OCPAÇÃO DO N S DE FÁTIMA POV ARATU, LOT SANTA CATARINA ANTIGO GORÉ", "localidade": "Nossa Senhora do Socorro, Sergipe, Brasil", "organizacao": "AASSOCIAÇÃO COMUNITÁRIA N SRª. DE FATIMA DO ESTADO DE SERGIPE", "categoria": "Planejamento Urbano, Gestão de Riscos e Responsabilidade Climática", "estado": "SE", "municipio": "Nossa Senhora do Socorro" }, "geometry": { "type": "Point", "coordinates": [ -37.126486, -10.855311 ] } },
{ "type": "Feature", "id": 1946, "properties": { "nome_acao": "Pra Hoje", "premiado": false, "nome_comunidade": "complexo de Vila Aliança", "localidade": "Rua Do Libretista, Bangu, Rio de Janeiro - Rio de Janeiro, 21842, Brasil", "organizacao": "Aliança Ativa - grupo Apoio", "categoria": "Acesso à Justiça e Combate às Desigualdades", "estado": "RJ", "municipio": "Rio de Janeiro" }, "geometry": { "type": "Point", "coordinates": [ -43.4786992, -22.8706658 ] } },
{ "type": "Feature", "id": 1947, "properties": { "nome_acao": "Circuito de skate street SL", "premiado": false, "nome_comunidade": "Praça da federal", "localidade": "Praça Doutor Humberto Sanches São Lourenço - Minas Gerais, 37470-000, Brasil", "organizacao": "PULCE", "categoria": "Cultura e Memória", "estado": "MG", "municipio": "São Lourenço" }, "geometry": { "type": "Point", "coordinates": [ -45.0499671, -22.1178468 ] } },
{ "type": "Feature", "id": 1948, "properties": { "nome_acao": "Organização Social sem fins lucrativos", "premiado": false, "nome_comunidade": "Conj.PAAR", "localidade": "Rua Rio Xingu Ananindeua - Pará, 67154-062, Brasil", "organizacao": "Associação Sociocultural Shalon", "categoria": "Soberania Alimentar e Nutricional", "estado": "PA", "municipio": "Ananindeua" }, "geometry": { "type": "Point", "coordinates": [ -48.3932315, -1.335071 ] } },
{ "type": "Feature", "id": 1949, "properties": { "nome_acao": "Batalha da terça", "premiado": false, "nome_comunidade": "Valentina de Figueiredo", "localidade": "Mercado Público Valentina Figueiredo, R. Mariângela Lucena Peixoto, s/n, João Pessoa, Paraíba 58911, Brasil", "organizacao": "@batalhadaterca", "categoria": "Cultura e Memória", "estado": "PB", "municipio": "João Pessoa" }, "geometry": { "type": "Point", "coordinates": [ -34.849888, -7.202343 ] } },
{ "type": "Feature", "id": 1950, "properties": { "nome_acao": "CPX MANGUEIRINHA EM PAUTA", "premiado": false, "nome_comunidade": "Complexo da Mangueirinha de Caxias", "localidade": "Rua Duque De Caxias Mangueirinha - Paraná, 85540-000, Brasil", "organizacao": "CPX Mangueirinha em pauta", "categoria": "Comunicação, Inclusão Digital e Educação Popular", "estado": "RJ", "municipio": "Duque de Caxias" }, "geometry": { "type": "Point", "coordinates": [ -52.1767572, -25.939843 ] } },
{ "type": "Feature", "id": 1951, "properties": { "nome_acao": "oficinas culturais gratuitas a crianças e jovens (musica, dança, teatro, capoeira, karatê, banda fanfarra e biblioteca comunitária).", "premiado": false, "nome_comunidade": "Rua Senador Dantas, 578,centro", "localidade": "Rio de Janeiro, Rio de Janeiro, Brasil", "organizacao": "Coletivo Cultural Gente Arteira em Cena", "categoria": "Economia Solidária", "estado": "RJ", "municipio": "Carmo" }, "geometry": { "type": "Point", "coordinates": [ -43.209373, -22.911014 ] } },
{ "type": "Feature", "id": 1952, "properties": { "nome_acao": "PROJETO CIGANO (TURISMO RELIGIOSO)", "premiado": false, "nome_comunidade": "PROJETO CIGANO", "localidade": "Praia de Santa Rita, Praia de Santa Rita, Extremoz, Rio Grande do Norte, Brasil", "organizacao": "PROJETO CIGANO", "categoria": "Cultura e Memória", "estado": "RN", "municipio": "Extremoz" }, "geometry": { "type": "Point", "coordinates": [ -35.20249, -5.71756 ] } },
{ "type": "Feature", "id": 1953, "properties": { "nome_acao": "Instituto Acolher", "premiado": false, "nome_comunidade": "Sol nascente e por do sol", "localidade": "Quadra 206 - Por Do Sol Brasília - Distrito Federal, 72238-150, Brasil", "organizacao": "Instituto Acolher", "categoria": "Economia Solidária", "estado": "DF", "municipio": "Ceilândia" }, "geometry": { "type": "Point", "coordinates": [ -48.1145134, -15.8563701 ] } },
{ "type": "Feature", "id": 1954, "properties": { "nome_acao": "Coletivo de mulheres Mães solidárias", "premiado": false, "nome_comunidade": "Serra Grande", "localidade": "Serra Grande, Uruçuca, Bahia, Brasil", "organizacao": "Mães solidárias", "categoria": "Economia Solidária", "estado": "BA", "municipio": "Uruçuca" }, "geometry": { "type": "Point", "coordinates": [ -39.034467, -14.467635 ] } },
{ "type": "Feature", "id": 1955, "properties": { "nome_acao": "Atividade diversas do Movimento Hip Hop com os 5 Elementos, atividades esportivas, sociais, tecnologia.", "premiado": false, "nome_comunidade": "Centros Culturais, Associações de Bairos, Praças da Cidade e Locais Históricos do Acre", "localidade": "Rua Euclides Da Cunha Rio Branco - Acre, 69905-250, Brasil", "organizacao": "Grupo Musical Os Cobras Dance e Grupo de Hip Hop MOCAMBO", "categoria": "Cultura e Memória", "estado": "AC", "municipio": "Rio Branco" }, "geometry": { "type": "Point", "coordinates": [ -67.8347935, -9.9714365 ] } },
{ "type": "Feature", "id": 1956, "properties": { "nome_acao": "Ocupação Centro de Convívio Luizinha Gonçalves", "premiado": false, "nome_comunidade": "Vila Atlântida", "localidade": "Montes Claros, Minas Gerais, Brasil", "organizacao": "MTD - Movimento de Trabalhadoras e Trabalhadores por Direitos", "categoria": "Cultura e Memória", "estado": "MG", "municipio": "Montes Claros" }, "geometry": { "type": "Point", "coordinates": [ -43.871768, -16.727354 ] } },
{ "type": "Feature", "id": 1957, "properties": { "nome_acao": "Formô HUB", "premiado": false, "nome_comunidade": "Morro da Cruz", "localidade": "Rua Ernesto Araujo 838, São José, Porto Alegre - Rio Grande do Sul, 91560-370, Brasil", "organizacao": "Grupo Formô", "categoria": "Comunicação, Inclusão Digital e Educação Popular", "estado": "RS", "municipio": "Porto Alegre" }, "geometry": { "type": "Point", "coordinates": [ -51.161975, -30.07573 ] } },
{ "type": "Feature", "id": 1958, "properties": { "nome_acao": "Batalha do Palácio", "premiado": false, "nome_comunidade": "Centro de Rio Branco", "localidade": "Rio Branco, Acre, Brasil", "organizacao": "Núcleo de Hip Hop Mocambo", "categoria": "Cultura e Memória", "estado": "AC", "municipio": "Rio Branco" }, "geometry": { "type": "Point", "coordinates": [ -67.822078, -9.976536 ] } },
{ "type": "Feature", "id": 1959, "properties": { "nome_acao": "Mãe na Roda - Doulagem Coletiva e Periférica", "premiado": false, "nome_comunidade": "jd. Ibirapuera", "localidade": "Jardim São Luís, São Paulo, São Paulo, Brasil", "organizacao": "Coletiva Mãe na Roda - Adosp - Parto do Principio - FenadoulasBR", "categoria": "Acesso à Justiça e Combate às Desigualdades", "estado": "SP", "municipio": "São Paulo" }, "geometry": { "type": "Point", "coordinates": [ -46.7407, -23.6739 ] } },
{ "type": "Feature", "id": 1960, "properties": { "nome_acao": "POR.ELAS", "premiado": false, "nome_comunidade": "SH Sol Nascente Trecho 3", "localidade": "Ch 114 Conjunto A B Brasília - Distrito Federal, 72236-800, Brasil", "organizacao": "COLETIVA POR.ELAS", "categoria": "Acesso à Justiça e Combate às Desigualdades", "estado": "DF", "municipio": "Ceilândia" }, "geometry": { "type": "Point", "coordinates": [ -48.1476698, -15.8096931 ] } },
{ "type": "Feature", "id": 1961, "properties": { "nome_acao": "Associação de Mulheres Tomeaçuense-AMT (Promoção de politicas publicas para mulheres em vulnerabilidade social.", "premiado": false, "nome_comunidade": "Desenvolvemos em Bairros da Zona Urbana e do Campo", "localidade": "Tomé-Açu, Pará, Brasil", "organizacao": "Associação de Mulheres Toméaçuense-AMT", "categoria": "Acesso à Justiça e Combate às Desigualdades", "estado": "PA", "municipio": "Tomé-Açu" }, "geometry": { "type": "Point", "coordinates": [ -48.152291, -2.416631 ] } },
{ "type": "Feature", "id": 1962, "properties": { "nome_acao": "Assentamento 20 de Novembro", "premiado": false, "nome_comunidade": "Assentamento 20 de Novembro", "localidade": "Rua Doutor Barros Cassal 161, Floresta, Porto Alegre - Rio Grande do Sul, 90035-030, Brasil", "organizacao": "Cooperativa de Trabalho e Habitação 20 de Novembro", "categoria": "Planejamento Urbano, Gestão de Riscos e Responsabilidade Climática", "estado": "RS", "municipio": "Porto Alegre" }, "geometry": { "type": "Point", "coordinates": [ -51.217477, -30.02743 ] } },
{ "type": "Feature", "id": 1963, "properties": { "nome_acao": "Radio Comunitaria", "premiado": false, "nome_comunidade": "Associacao Comunitaria de Difusao Cultural", "localidade": "Piratininga, São Paulo, Brasil", "organizacao": "Real", "categoria": "Planejamento Urbano, Gestão de Riscos e Responsabilidade Climática", "estado": "SP", "municipio": "Piratininga" }, "geometry": { "type": "Point", "coordinates": [ -49.135148, -22.413636 ] } },
{ "type": "Feature", "id": 1964, "properties": { "nome_acao": "Cursinho Popular Guilherme Soares e Ponto Popular de Segurança Alimentar e Nutricional", "premiado": false, "nome_comunidade": "Vila Barracão", "localidade": "Rua Dona Helena 100, Santa Teresa, Porto Alegre - Rio Grande do Sul, 90830-585, Brasil", "organizacao": "Levante Popular da Juventude", "categoria": "Acesso à Justiça e Combate às Desigualdades", "estado": "RS", "municipio": "Porto Alegre" }, "geometry": { "type": "Point", "coordinates": [ -51.225679, -30.081078 ] } },
{ "type": "Feature", "id": 1965, "properties": { "nome_acao": "Ação social", "premiado": false, "nome_comunidade": "Pousada da esperança 1", "localidade": "Rua Miguel Debia Bauru - São Paulo, 17022, Brasil", "organizacao": "Comunidade em Ação", "categoria": "Economia Solidária", "estado": "SP", "municipio": "Bauru" }, "geometry": { "type": "Point", "coordinates": [ -49.0734784, -22.2745841 ] } },
{ "type": "Feature", "id": 1966, "properties": { "nome_acao": "Só líder comunitário", "premiado": false, "nome_comunidade": "Jd tv vila Garcia Nova Marília Jd Marília", "localidade": "Rua Tenente Joaquim Da Costa Guimarães Bauru - São Paulo, 17021, Brasil", "organizacao": "***", "categoria": "Cultura e Memória", "estado": "SP", "municipio": "Bauru" }, "geometry": { "type": "Point", "coordinates": [ -49.0830327, -22.2937803 ] } },
{ "type": "Feature", "id": 1967, "properties": { "nome_acao": "Centro Sócio Pastoral Nossa Senhora da Conceição", "premiado": false, "nome_comunidade": "Mãe Luiza", "localidade": "Mãe Luíza, Natal, Rio Grande do Norte, Brasil", "organizacao": "Centro Sócio Pastoral Nossa Senhora da Conceição", "categoria": "Acesso à Justiça e Combate às Desigualdades", "estado": "RN", "municipio": "Natal" }, "geometry": { "type": "Point", "coordinates": [ -35.19, -5.79 ] } },
{ "type": "Feature", "id": 1968, "properties": { "nome_acao": "Crew graffite MSTK(Movimento Sem Tinta Krew)", "premiado": false, "nome_comunidade": "Em Belford Roxo e em todo RJ", "localidade": "Belford Roxo, Rio de Janeiro, Brasil", "organizacao": "Crew MSTK", "categoria": "Cultura e Memória", "estado": "RJ", "municipio": "Belford Roxo" }, "geometry": { "type": "Point", "coordinates": [ -43.40336, -22.766728 ] } },
{ "type": "Feature", "id": 1969, "properties": { "nome_acao": "Rádio Evidência FM", "premiado": false, "nome_comunidade": "Santo Antônio do Aracanguá", "localidade": "Rua Thomaz Sebastião De Mendonça Santo Antônio do Aracanguá - São Paulo, 16130-000, Brasil", "organizacao": "Associação Cultural Aracanguaense de Difusão Comunitária", "categoria": "Cultura e Memória", "estado": "SP", "municipio": "Santo Antônio do Aracanguá" }, "geometry": { "type": "Point", "coordinates": [ -50.4962247, -20.9340601 ] } },
{ "type": "Feature", "id": 1970, "properties": { "nome_acao": "Poesia nas Quebradas", "premiado": false, "nome_comunidade": "Planaltina", "localidade": "Brasília, Distrito Federal, 73350, Brasil", "organizacao": "Poesia nas Quebradas", "categoria": "Acesso à Justiça e Combate às Desigualdades", "estado": "DF", "municipio": "Planaltina" }, "geometry": { "type": "Point", "coordinates": [ -47.647864, -15.612453 ] } },
{ "type": "Feature", "id": 1971, "properties": { "nome_acao": "Espalhando Amor DF", "premiado": false, "nome_comunidade": "Comunidade do Açaí", "localidade": "Qn 317 Brasília - Distrito Federal, 72307-700, Brasil", "organizacao": "Instituto Espalhando Amor", "categoria": "Economia Solidária", "estado": "DF", "municipio": "Samambaia" }, "geometry": { "type": "Point", "coordinates": [ -48.1119712, -15.8912899 ] } },
{ "type": "Feature", "id": 1972, "properties": { "nome_acao": "MPM - Movimento Popular por Moradia", "premiado": false, "nome_comunidade": "Ocupação Nova Esperança (referência); Ocupação Tiradentes II; Ocupação Dona Cida; Ocupação Nova Primavera; Ocupação,29 de Março; Ocupação Independência Popular.", "localidade": "Rua Mauro Dantas Campo Magro - Paraná, 83535-000, Brasil", "organizacao": "MPM", "categoria": "Planejamento Urbano, Gestão de Riscos e Responsabilidade Climática", "estado": "PR", "municipio": "Curitiba" }, "geometry": { "type": "Point", "coordinates": [ -49.4455134, -25.3669844 ] } },
{ "type": "Feature", "id": 1973, "properties": { "nome_acao": "Espaço Sociocultural Águas do Amanhã", "premiado": false, "nome_comunidade": "Zona Oeste do RJ - SEPETIBA", "localidade": "Sepetiba, 23530, Rio de Janeiro, Rio de Janeiro, Brasil", "organizacao": "Espaço Sociocultural Águas do Amanhã", "categoria": "Soberania Alimentar e Nutricional", "estado": "RJ", "municipio": "Rio de Janeiro" }, "geometry": { "type": "Point", "coordinates": [ -43.6941, -22.968 ] } },
{ "type": "Feature", "id": 1974, "properties": { "nome_acao": "ID HIP HOP - INDENTIDADE HIP HOP", "premiado": false, "nome_comunidade": "CEU AZUL", "localidade": "Rio Verde, Goiás, Brasil", "organizacao": "ACRH2 - ASSOCIAÇÃO CULTURAL RIO VERDENSE DE HIP HOP", "categoria": "Comunicação, Inclusão Digital e Educação Popular", "estado": "GO", "municipio": "Rio Verde" }, "geometry": { "type": "Point", "coordinates": [ -50.919122, -17.792125 ] } },
{ "type": "Feature", "id": 1975, "properties": { "nome_acao": "Afro Memórias Atuais", "premiado": false, "nome_comunidade": "Zona oeste", "localidade": "Rio de Janeiro, Rio de Janeiro, Brasil", "organizacao": "Afro Memórias Atuais", "categoria": "Acesso à Justiça e Combate às Desigualdades", "estado": "RJ", "municipio": "Rio de Janeiro" }, "geometry": { "type": "Point", "coordinates": [ -43.209373, -22.911014 ] } },
{ "type": "Feature", "id": 1976, "properties": { "nome_acao": "LAZER NAS QUADRAS", "premiado": false, "nome_comunidade": "RECANTO DAS EMAS DF", "localidade": "Brasília, Distrito Federal, Brasil", "organizacao": "EQUIPE 88 FLASH BLACK", "categoria": "Cultura e Memória", "estado": "DF", "municipio": "Recanto das Emas" }, "geometry": { "type": "Point", "coordinates": [ -47.882317, -15.793404 ] } },
{ "type": "Feature", "id": 1977, "properties": { "nome_acao": "Companhia de dança PEGADA BLACK DANÇA&CIA e o BAILE CHARME DA TORRE DE TV", "premiado": false, "nome_comunidade": "DISTRITO FEDERAL e ENTORNO", "localidade": "Torre de TV, Eixo Monumental Oeste, Brasília, Distrito Federal 70070, Brasil", "organizacao": "PEGADA BLACK", "categoria": "Cultura e Memória", "estado": "DF", "municipio": "Brasília" }, "geometry": { "type": "Point", "coordinates": [ -47.892902, -15.790561 ] } },
{ "type": "Feature", "id": 1978, "properties": { "nome_acao": "MH2P - Movimento Hip Hop do Paranoá", "premiado": false, "nome_comunidade": "Paranoá", "localidade": "Avenida Paranoa Cj 9 Brasília - Distrito Federal, 71571-710, Brasil", "organizacao": "MH2P - Movimento Hip Hop do Paranoá", "categoria": "Cultura e Memória", "estado": "DF", "municipio": "Brasília" }, "geometry": { "type": "Point", "coordinates": [ -47.7799941, -15.7729284 ] } },
{ "type": "Feature", "id": 1979, "properties": { "nome_acao": "Criando associação", "premiado": false, "nome_comunidade": "Jacaré", "localidade": "Cabedelo, Paraíba, Brasil", "organizacao": "Associação dos guardadores de carro e vendedores passeios do por do sol do jacaré", "categoria": "Economia Solidária", "estado": "PB", "municipio": "Cabedelo" }, "geometry": { "type": "Point", "coordinates": [ -34.835161, -6.97324 ] } },
{ "type": "Feature", "id": 1980, "properties": { "nome_acao": "Coletivo Caranguejo Tabaiares Resiste", "premiado": false, "nome_comunidade": "Caranguejo Tabaiares", "localidade": "Recife, Pernambuco, Brasil", "organizacao": "Caranguejo Tabaiares Resiste", "categoria": "Planejamento Urbano, Gestão de Riscos e Responsabilidade Climática", "estado": "PE", "municipio": "Recife" }, "geometry": { "type": "Point", "coordinates": [ -34.884819, -8.058493 ] } },
{ "type": "Feature", "id": 1981, "properties": { "nome_acao": "Instituto Avivar", "premiado": false, "nome_comunidade": "Granja Lisboa", "localidade": "Rua Caricia De Menina, Granja Lisboa, Fortaleza - Ceará, 60540, Brasil", "organizacao": "Instituto Avivar", "categoria": "Soberania Alimentar e Nutricional", "estado": "CE", "municipio": "Fortaleza" }, "geometry": { "type": "Point", "coordinates": [ -38.6145144, -3.7832007 ] } },
{ "type": "Feature", "id": 1982, "properties": { "nome_acao": "Movimento Nacional de Luta pela Moradia", "premiado": false, "nome_comunidade": "Ocupação Zezeu Ribeiro e Norma Lúcia.", "localidade": "Rua Dos Caetés 331, Centro, Belo Horizonte - Minas Gerais, 30120-080, Brasil", "organizacao": "Movimento Nacional de Luta pela Moradia - MNLM", "categoria": "Planejamento Urbano, Gestão de Riscos e Responsabilidade Climática", "estado": "MG", "municipio": "Belo Horizonte" }, "geometry": { "type": "Point", "coordinates": [ -43.937135, -19.916982 ] } },
{ "type": "Feature", "id": 1983, "properties": { "nome_acao": "UZS CREW (graffiti)", "premiado": false, "nome_comunidade": "Quarenta", "localidade": "Rua Anacleto Eloy, Quarenta, Campina Grande - Paraíba, Brasil", "organizacao": "Construção Nacional cinquentenário hiphop", "categoria": "Comunicação, Inclusão Digital e Educação Popular", "estado": "PB", "municipio": "Campina Grande" }, "geometry": { "type": "Point", "coordinates": [ -35.8992976, -7.2328495 ] } },
{ "type": "Feature", "id": 1984, "properties": { "nome_acao": "Instituto Sobradinhense de Desenvolvimento Social", "premiado": false, "nome_comunidade": "Fercal DF", "localidade": "Distrito Federal, Brasil", "organizacao": "Instituto Sobradinhense de Desenvolvimento Social", "categoria": "Saúde Integral e Dignidade Humana", "estado": "DF", "municipio": "Brasília" }, "geometry": { "type": "Point", "coordinates": [ -47.790561198, -15.6845683816 ] } },
{ "type": "Feature", "id": 1985, "properties": { "nome_acao": "Instituto Eklesia - Ponto de Gratidão", "premiado": false, "nome_comunidade": "Comunidades Padre Vitor, Sion e adjacencias", "localidade": "Varginha, Minas Gerais, Brasil", "organizacao": "Instituto Eklesia", "categoria": "Soberania Alimentar e Nutricional", "estado": "MG", "municipio": "Varginha" }, "geometry": { "type": "Point", "coordinates": [ -45.434067, -21.556591 ] } },
{ "type": "Feature", "id": 1986, "properties": { "nome_acao": "Amora Balaio Criativo", "premiado": false, "nome_comunidade": "Jardim Bom Pastor", "localidade": "Rua Sebastião Pedroso, Jardim Bom Pastor, Santo André - São Paulo, 09051, Brasil", "organizacao": "Amora Balaio Criativo e Espaço Cultural Circo do Asfalto", "categoria": "Cultura e Memória", "estado": "SP", "municipio": "São Paulo" }, "geometry": { "type": "Point", "coordinates": [ -46.5533636, -23.6803521 ] } },
{ "type": "Feature", "id": 1987, "properties": { "nome_acao": "Cultura Popular", "premiado": false, "nome_comunidade": "Ceilândia", "localidade": "Qnq 5 Brasília - Distrito Federal, 72270-501, Brasil", "organizacao": "Instituto Cultural Menino de Ceilândia", "categoria": "Comunicação, Inclusão Digital e Educação Popular", "estado": "DF", "municipio": "Ceilândia" }, "geometry": { "type": "Point", "coordinates": [ -48.1468056, -15.8077764 ] } },
{ "type": "Feature", "id": 1988, "properties": { "nome_acao": "Coletiva e Selo Editorial Me Parió Revolução", "premiado": false, "nome_comunidade": "Jardim São Saverio", "localidade": "Rua Memorial De Aires São Paulo - São Paulo, 00000-000, Brasil", "organizacao": "Coletiva e Selo Editorial Me Parió Revolução", "categoria": "Cultura e Memória", "estado": "SP", "municipio": "São Paulo" }, "geometry": { "type": "Point", "coordinates": [ -46.609169537500001, -23.65326525 ] } },
{ "type": "Feature", "id": 1989, "properties": { "nome_acao": "Paranoa parque esporte clube", "premiado": false, "nome_comunidade": "Paranoa parque", "localidade": "Brasília, Distrito Federal, Brasil", "organizacao": "Instituto Social maior", "categoria": "Acesso à Justiça e Combate às Desigualdades", "estado": "DF", "municipio": "Brasília" }, "geometry": { "type": "Point", "coordinates": [ -47.882317, -15.793404 ] } },
{ "type": "Feature", "id": 1990, "properties": { "nome_acao": "Conexão das Periferia/ As Dona", "premiado": false, "nome_comunidade": "Escolas e universidades", "localidade": "Guarapuava, Paraná, Brasil", "organizacao": "Conexão das Periferia", "categoria": "Acesso à Justiça e Combate às Desigualdades", "estado": "PR", "municipio": "Guarapuava" }, "geometry": { "type": "Point", "coordinates": [ -51.462202, -25.395099 ] } },
{ "type": "Feature", "id": 1991, "properties": { "nome_acao": "Coletivo beco, Instituto Conexão Perifa, Se Conecta JuventudeS", "premiado": false, "nome_comunidade": "Território do bem -bairro da Penha", "localidade": "Rua Vitor Finamore, Da Penha, Vitória - Espírito Santo, 29045, Brasil", "organizacao": "Instituto conexão Perifa", "categoria": "Acesso à Justiça e Combate às Desigualdades", "estado": "ES", "municipio": "Vitória" }, "geometry": { "type": "Point", "coordinates": [ -40.3081476, -20.2997684 ] } },
{ "type": "Feature", "id": 1992, "properties": { "nome_acao": "Associação Distrital de Skate", "premiado": false, "nome_comunidade": "Ceilândia", "localidade": "Qnm 14 Brasília - Distrito Federal, 72210, Brasil", "organizacao": "Associação Distrital de Skate", "categoria": "Cultura e Memória", "estado": "DF", "municipio": "Ceilândia" }, "geometry": { "type": "Point", "coordinates": [ -48.107366, -15.8121712 ] } },
{ "type": "Feature", "id": 1993, "properties": { "nome_acao": "Família sagrada Família HIP HOP", "premiado": false, "nome_comunidade": "Heliópolis", "localidade": "Rua Das Palmeiras 35, Shangri-Lá, Belford Roxo - Rio de Janeiro, 26153-014, Brasil", "organizacao": "FAMÍLIA SAGRADA FAMÍLIA", "categoria": "Economia Solidária", "estado": "RJ", "municipio": "Belford Roxo" }, "geometry": { "type": "Point", "coordinates": [ -43.422585, -22.718091 ] } },
{ "type": "Feature", "id": 1994, "properties": { "nome_acao": "Cordão Sucatas Ambulantes", "premiado": false, "nome_comunidade": "Conjunto Habitacional José Bonifácio", "localidade": "Cohab II, São Paulo, São Paulo 08255, Brasil", "organizacao": "Cordão Sucatas Ambulantes", "categoria": "Cultura e Memória", "estado": "SP", "municipio": "São Paulo" }, "geometry": { "type": "Point", "coordinates": [ -46.433775, -23.55431 ] } },
{ "type": "Feature", "id": 1995, "properties": { "nome_acao": "Sou Mc e do grupo Ética de rua", "premiado": false, "nome_comunidade": "Santa maria DF e entorno Sul", "localidade": "Distrito Federal, Brasil", "organizacao": "50 anos de Hip hop e Maloca organizada", "categoria": "Cultura e Memória", "estado": "GO", "municipio": "Novo Gama" }, "geometry": { "type": "Point", "coordinates": [ -47.790561198, -15.6845683816 ] } },
{ "type": "Feature", "id": 1996, "properties": { "nome_acao": "CYPHER NA RUA", "premiado": false, "nome_comunidade": "CORTE 8", "localidade": "Duque de Caxias, Rio de Janeiro, Brasil", "organizacao": "CENTRO DE DESENVOLVIMENTO DE ATRIBUTOS URBANOS", "categoria": "Planejamento Urbano, Gestão de Riscos e Responsabilidade Climática", "estado": "RJ", "municipio": "Duque de Caxias" }, "geometry": { "type": "Point", "coordinates": [ -43.309929, -22.789622 ] } },
{ "type": "Feature", "id": 1997, "properties": { "nome_acao": "Instituto BR 55 / Casa Hip-Hop Brasil / Memorial Hip-Hop Brasil", "premiado": false, "nome_comunidade": "Cidade de Deus onde sou criado, Lapa e todas as favelas do Rio de Janeiro.", "localidade": "Rio de Janeiro, Rio de Janeiro, Brasil", "organizacao": "Instituto BR 55 / Casa Hip-Hop Brasil / Memorial Hip-Hop Brasil", "categoria": "Cultura e Memória", "estado": "RJ", "municipio": "Rio de Janeiro" }, "geometry": { "type": "Point", "coordinates": [ -43.209373, -22.911014 ] } },
{ "type": "Feature", "id": 1998, "properties": { "nome_acao": "SEM PAREDES SEM FRONTEIRAS", "premiado": false, "nome_comunidade": "Cidade ocidental e outros", "localidade": "Cidade Ocidental, Goiás, Brasil", "organizacao": "SEM PAREDES SEM FRONTEIRAS", "categoria": "Cultura e Memória", "estado": "GO", "municipio": "Cidade Ocidental" }, "geometry": { "type": "Point", "coordinates": [ -47.944501, -16.100076 ] } },
{ "type": "Feature", "id": 1999, "properties": { "nome_acao": "Coletivo Comunidade da linha Resiste", "premiado": false, "nome_comunidade": "COMUNIDADE DA LINHA SÍTIO SANTA FRANCISCA", "localidade": "Rua Professor Potiguar Matos, Ibura, Recife - Pernambuco, 51220, Brasil", "organizacao": "COLETIVO DA COMUNIDADE DA LINHA RESISTE", "categoria": "Planejamento Urbano, Gestão de Riscos e Responsabilidade Climática", "estado": "PE", "municipio": "Recife" }, "geometry": { "type": "Point", "coordinates": [ -34.9309818, -8.1087212 ] } },
{ "type": "Feature", "id": 2000, "properties": { "nome_acao": "Cine Club TF", "premiado": false, "nome_comunidade": "Terra Firme", "localidade": "Rua Angelim 14, Montese (Terra Firme), Belém - Pará, 66077-385, Brasil", "organizacao": "Cine clube TF", "categoria": "Acesso à Justiça e Combate às Desigualdades", "estado": "PA", "municipio": "Belém" }, "geometry": { "type": "Point", "coordinates": [ -48.447325, -1.448924 ] } },
{ "type": "Feature", "id": 2001, "properties": { "nome_acao": "Cine Club TF", "premiado": false, "nome_comunidade": "Terra Firme", "localidade": "Rua Angelim 14, Montese (Terra Firme), Belém - Pará, 66077-385, Brasil", "organizacao": "Cine clube TF", "categoria": "Acesso à Justiça e Combate às Desigualdades", "estado": "PA", "municipio": "Belém" }, "geometry": { "type": "Point", "coordinates": [ -48.447325, -1.448924 ] } },
{ "type": "Feature", "id": 2002, "properties": { "nome_acao": "Cria em Ação", "premiado": false, "nome_comunidade": "Comunidade do Pilar", "localidade": "Rua Do Brum, Bairro do Recife, Recife - Pernambuco, 50030, Brasil", "organizacao": "Cria em Ação e paparazzis do Marco zero", "categoria": "Comunicação, Inclusão Digital e Educação Popular", "estado": "PE", "municipio": "Recife" }, "geometry": { "type": "Point", "coordinates": [ -34.8718131, -8.0569374 ] } },
{ "type": "Feature", "id": 2003, "properties": { "nome_acao": "Projeto Evangelístico e Social", "premiado": false, "nome_comunidade": "Comunidade da Mangueira / Comunidade Jd Aeroporto", "localidade": "Travessa Caetes, Subsetor Oeste - 1 (O-1), Ribeirão Preto - São Paulo, 14030, Brasil", "organizacao": "Projeto Missão Calebe", "categoria": "Acesso à Justiça e Combate às Desigualdades", "estado": "SP", "municipio": "Ribeirão Preto" }, "geometry": { "type": "Point", "coordinates": [ -47.8333716, -21.1804508 ] } },
{ "type": "Feature", "id": 2004, "properties": { "nome_acao": "Artemisia - Letramento Social e Emprendedorismo Feminino", "premiado": false, "nome_comunidade": "Monjolos", "localidade": "Rua Joao Batista De Oliveira, Monjolos, São Gonçalo - Rio de Janeiro, 24723, Brasil", "organizacao": "Movimento Cidade no Feminino", "categoria": "Planejamento Urbano, Gestão de Riscos e Responsabilidade Climática", "estado": "RJ", "municipio": "São Gonçalo" }, "geometry": { "type": "Point", "coordinates": [ -42.9395187, -22.8164463 ] } },
{ "type": "Feature", "id": 2005, "properties": { "nome_acao": "Núcleo de estudos, organização e difusão do conhecimento sobre literatura marginal (NEOLiM)", "premiado": false, "nome_comunidade": "PLANALTINA DF", "localidade": "Pedra Fundamental, DF 128, Brasília, Distrito Federal 73376, Brasil", "organizacao": "NEOLIM/POESIA NAS QUEBRADAS", "categoria": "Cultura e Memória", "estado": "DF", "municipio": "Planaltina" }, "geometry": { "type": "Point", "coordinates": [ -47.67928, -15.685353 ] } },
{ "type": "Feature", "id": 2006, "properties": { "nome_acao": "grupo Afrolaje", "premiado": false, "nome_comunidade": "Praça Agripino Grieco", "localidade": "Rio de Janeiro, Rio de Janeiro, Brasil", "organizacao": "associação cultural grupo afrolaje", "categoria": "Cultura e Memória", "estado": "RJ", "municipio": "Rio de Janeiro" }, "geometry": { "type": "Point", "coordinates": [ -43.209373, -22.911014 ] } },
{ "type": "Feature", "id": 2007, "properties": { "nome_acao": "Complexo Alto", "premiado": false, "nome_comunidade": "Cidade Alta", "localidade": "Rio de Janeiro, Rio de Janeiro, Brasil", "organizacao": "Roda CDA", "categoria": "Comunicação, Inclusão Digital e Educação Popular", "estado": "RJ", "municipio": "Rio de Janeiro" }, "geometry": { "type": "Point", "coordinates": [ -43.209373, -22.911014 ] } },
{ "type": "Feature", "id": 2008, "properties": { "nome_acao": "Associação de Moradores do Parque São Jorge", "premiado": false, "nome_comunidade": "Parque São Jorge", "localidade": "Cuiabá, Mato Grosso, Brasil", "organizacao": "Associação de Moradores do Parque São Jorge", "categoria": "Planejamento Urbano, Gestão de Riscos e Responsabilidade Climática", "estado": "MT", "municipio": "Cuiabá" }, "geometry": { "type": "Point", "coordinates": [ -56.09913, -15.598669 ] } },
{ "type": "Feature", "id": 2009, "properties": { "nome_acao": "Projeto Abril Pro Rap PG", "premiado": false, "nome_comunidade": "Bairro ronda cidade de Ponta Grossa", "localidade": "Rua Chile, Ronda, Ponta Grossa - Paraná, 84051-480, Brasil", "organizacao": "Organização Hip Hop", "categoria": "Comunicação, Inclusão Digital e Educação Popular", "estado": "PR", "municipio": "Ponta Grossa" }, "geometry": { "type": "Point", "coordinates": [ -50.1734399, -25.100092 ] } },
{ "type": "Feature", "id": 2010, "properties": { "nome_acao": "Falas Pretas, grupo de Marisqueiras, karatê- futuros campeões, capoeira, teatro, reforço, acesso aos direitos.", "premiado": false, "nome_comunidade": "Comunidade da Brejal, Bom parto, nova vila, favela da carrocinha, favela da invasão", "localidade": "Rua São Vicente, Levada, Maceió - Alagoas, 57917, Brasil", "organizacao": "Instituição Projeto Brejal", "categoria": "Comunicação, Inclusão Digital e Educação Popular", "estado": "AL", "municipio": "Maceió" }, "geometry": { "type": "Point", "coordinates": [ -35.7462002, -9.6564826 ] } },
{ "type": "Feature", "id": 2011, "properties": { "nome_acao": "Projeto Geloteca Ferraz", "premiado": false, "nome_comunidade": "Ferraz de Vasconcelos e todo alto Tietê", "localidade": "Ferraz de Vasconcelos, São Paulo, Brasil", "organizacao": "Projeto Geloteca", "categoria": "Comunicação, Inclusão Digital e Educação Popular", "estado": "SP", "municipio": "Ferraz de Vasconcelos" }, "geometry": { "type": "Point", "coordinates": [ -46.37097, -23.541056 ] } },
{ "type": "Feature", "id": 2012, "properties": { "nome_acao": "Projeto Sócio-Cultural Guerreiros da Guia", "premiado": false, "nome_comunidade": "Morro N.S. da Guia (Gambá)", "localidade": "Lins de Vasconcelos, 20725, Rio de Janeiro, Rio de Janeiro, Brasil", "organizacao": "Guerreiros da Guia", "categoria": "Cultura e Memória", "estado": "RJ", "municipio": "Rio de Janeiro" }, "geometry": { "type": "Point", "coordinates": [ -43.2844, -22.9141 ] } },
{ "type": "Feature", "id": 2013, "properties": { "nome_acao": "SOS CDD", "premiado": false, "nome_comunidade": "Cidade de Deus", "localidade": "Cidade de Deus, 22773, Rio de Janeiro, Rio de Janeiro, Brasil", "organizacao": "Sos CDD e Fundação Desce Favela", "categoria": "Acesso à Justiça e Combate às Desigualdades", "estado": "RJ", "municipio": "Rio de Janeiro" }, "geometry": { "type": "Point", "coordinates": [ -43.3629, -22.948 ] } },
{ "type": "Feature", "id": 2014, "properties": { "nome_acao": "Ocupação Casa Cultural Hip-Hop Jaçanã", "premiado": false, "nome_comunidade": "Jaçanã", "localidade": "Rua Maria Amália Lopes Azevedo São Paulo - São Paulo, 02350-002, Brazil", "organizacao": "Casa Cultural Hip-Hop Jaçanã", "categoria": "Cultura e Memória", "estado": "SP", "municipio": "São Paulo" }, "geometry": { "type": "Point", "coordinates": [ -46.6057637, -23.4581135 ] } },
{ "type": "Feature", "id": 2015, "properties": { "nome_acao": "Projeto de alfabetização para adultos, escola Maria Vila alta", "premiado": false, "nome_comunidade": "Vila alta", "localidade": "Rua Dos Ipes, Zona 10, Paranavaí - Paraná, Brasil", "organizacao": "Coletivo LGBTI+ de Paranavai", "categoria": "Saúde Integral e Dignidade Humana", "estado": "PR", "municipio": "Paranavaí" }, "geometry": { "type": "Point", "coordinates": [ -52.4445198, -23.1016431 ] } },
{ "type": "Feature", "id": 2016, "properties": { "nome_acao": "Espaço Cultural \"PELU CERTO\"", "premiado": false, "nome_comunidade": "Bairro Santa Maria (Terra Dura)", "localidade": "Santa Maria, 49007, Aracaju, Sergipe, Brasil", "organizacao": "Espaço Cultural PELU CERTO", "categoria": "Comunicação, Inclusão Digital e Educação Popular", "estado": "SE", "municipio": "Aracaju" }, "geometry": { "type": "Point", "coordinates": [ -37.1103, -10.9992 ] } },
{ "type": "Feature", "id": 2017, "properties": { "nome_acao": "Ação social vizinhos unidos fazem a d", "premiado": false, "nome_comunidade": "Residencial jardins dos ipês", "localidade": "Castanhal, Pará, Brasil", "organizacao": "Vizinhos unidos fazem a diferença", "categoria": "Economia Solidária", "estado": "PA", "municipio": "Castanhal" }, "geometry": { "type": "Point", "coordinates": [ -47.92239, -1.292703 ] } },
{ "type": "Feature", "id": 2018, "properties": { "nome_acao": "Companhia Circense Akrobas", "premiado": false, "nome_comunidade": "Grajaú", "localidade": "Rua Ezequiel Lopes Cardoso 333, São Paulo - São Paulo, 04843-610, Brasil", "organizacao": "Companhia Circense Akrobas", "categoria": "Saúde Integral e Dignidade Humana", "estado": "SP", "municipio": "São Paulo" }, "geometry": { "type": "Point", "coordinates": [ -46.687747, -23.749427 ] } },