{"type":"FeatureCollection","name":"acoes_final","crs":{"type":"name","properties":{"name":"urn:ogc:def:crs:OGC:1.3:CRS84"}},"features":[{"type":"Feature","properties":{"nome_acao":"\"BOI DA TERRA, FIRME NO RESGATE E NA VALORIZAÇÃO DE UMA CULTURAL POPULAR DE PAZ NA PERIFERIA DE BELÉM\".","nome_comunidade":"***","localidade":"Passagem Comissário, Montese (Terra Firme), Belém - Pará, 66077-170, Brasil","organizacao":"\"BOI DA TERRA, FIRME NO RESGATE E NA VALORIZAÇÃO DE UMA CULTURAL POPULAR DE PAZ NA PERIFERIA DE BELÉM\".","categoria":"Cultura e Memória","municipio":"Belém","premiado":false,"uf":"PA"},"geometry":{"type":"Point","coordinates":[-48.45241505,-1.45949325]}},{"type":"Feature","properties":{"nome_acao":"\"CAPOERÊ: A CULTURA DA CAPOEIRA REGIONAL E A MEMÓRIA DO MESTRE BIMBA NAS PERIFERIAS DE SALVADOR, BAHIA\"","nome_comunidade":"***","localidade":"Salvador, Bahia, Brasil","organizacao":"\"CAPOERÊ: A CULTURA DA CAPOEIRA REGIONAL E A MEMÓRIA DO MESTRE BIMBA NAS PERIFERIAS DE SALVADOR, BAHIA\"","categoria":"Cultura e Memória","municipio":"Salvador","premiado":false,"uf":"BA"},"geometry":{"type":"Point","coordinates":[-38.481277,-12.98225]}},{"type":"Feature","properties":{"nome_acao":"\"CUIDANDO DO MUNDO DA GENTE\"","nome_comunidade":"***","localidade":"Rua Moisés Alves Dos Santos São Paulo - São Paulo, 08111, Brasil","organizacao":"\"CUIDANDO DO MUNDO DA GENTE\"","categoria":"Planejamento Urbano, Gestão de Riscos e Responsabilidade Climática","municipio":"São Paulo","premiado":false,"uf":"SP"},"geometry":{"type":"Point","coordinates":[-46.3752779,-23.4889074]}},{"type":"Feature","properties":{"nome_acao":"\"MESA DE NEGOCIAÇÃO DA OCUPAÇÃO COLISEU II.” UMA POSSÍVEL ALTERNATIVA PARA SOLUCIONAR OS CONFLITOS FUNDIÁRIOS URBANOS EM MANAUS – AM.","nome_comunidade":"***","localidade":"Manaus, Amazonas, Brasil","organizacao":"\"MESA DE NEGOCIAÇÃO DA OCUPAÇÃO COLISEU II.” UMA POSSÍVEL ALTERNATIVA PARA SOLUCIONAR OS CONFLITOS FUNDIÁRIOS URBANOS EM MANAUS – AM.","categoria":"Acesso à Justiça e Combate às Desigualdades","municipio":"Manaus","premiado":false,"uf":"AM"},"geometry":{"type":"Point","coordinates":[-59.982504,-3.131633]}},{"type":"Feature","properties":{"nome_acao":"#NOIZZPORNOIZZ@SIGLA","nome_comunidade":"Jd sao saverio","localidade":"Sacomã, São Paulo, São Paulo, Brasil","organizacao":"#NOIZZPORNOIZZ@SIGLA","categoria":"Acesso à Justiça e Combate às Desigualdades","municipio":"São Paulo","premiado":false,"uf":"SP"},"geometry":{"type":"Point","coordinates":[-46.6022,-23.608]}},{"type":"Feature","properties":{"nome_acao":"@ECOWELLL: A MODA ECOLÓGICA NO CERRADO DO TRIÂNGULO MINEIRO COMO MEIO DE DIFUSÃO DE CONHECIMENTOS CIENTÍFICOS E FERRAMENTA PARA A EDUCAÇÃO AMBIENTAL","nome_comunidade":"***","localidade":"Uberlândia, Minas Gerais, Brasil","organizacao":"@ECOWELLL: A MODA ECOLÓGICA NO CERRADO DO TRIÂNGULO MINEIRO COMO MEIO DE DIFUSÃO DE CONHECIMENTOS CIENTÍFICOS E FERRAMENTA PARA A EDUCAÇÃO AMBIENTAL","categoria":"Comunicação, Inclusão Digital e Educação Popular","municipio":"Uberlândia","premiado":false,"uf":"MG"},"geometry":{"type":"Point","coordinates":[-48.276784,-18.918804]}},{"type":"Feature","properties":{"nome_acao":"@STALKINGDACURIOSIDADEAOCRIME: ESTRATÉGIA PUBLICITÁRIA PARA COMBATER UMA PRÁTICA CRIMINOSA","nome_comunidade":"***","localidade":"Santana, Amapá, Brasil","organizacao":"@STALKINGDACURIOSIDADEAOCRIME: ESTRATÉGIA PUBLICITÁRIA PARA COMBATER UMA PRÁTICA CRIMINOSA","categoria":"Comunicação, Inclusão Digital e Educação Popular","municipio":"Santana","premiado":false,"uf":"AP"},"geometry":{"type":"Point","coordinates":[-51.178967,-0.030707]}},{"type":"Feature","properties":{"nome_acao":"“É DE CAPOEIRA!” - NÚCLEO CAÇAPAVA DE CAPOEIRA","nome_comunidade":"***","localidade":"Grajaú, 20561, Rio de Janeiro, Rio de Janeiro, Brasil","organizacao":"“É DE CAPOEIRA!” - NÚCLEO CAÇAPAVA DE CAPOEIRA","categoria":"Cultura e Memória","municipio":"Rio de Janeiro","premiado":false,"uf":"RJ"},"geometry":{"type":"Point","coordinates":[-43.2695,-22.9299]}},{"type":"Feature","properties":{"nome_acao":"“UM BOM LUGAR OU MEU ESPAÇO DE PAZ NO MUNDO”","nome_comunidade":"***","localidade":"Avenida Das Orquídeas 531, Piraquara - Paraná, 83310-200, Brasil","organizacao":"“UM BOM LUGAR OU MEU ESPAÇO DE PAZ NO MUNDO”","categoria":"Comunicação, Inclusão Digital e Educação Popular","municipio":"Piraquara","premiado":false,"uf":"PR"},"geometry":{"type":"Point","coordinates":[-49.12753,-25.456684]}},{"type":"Feature","properties":{"nome_acao":"1) AGROECOLOGIA E ECONOMIA SOLIDÁRIA NO JARDIM PALANQUE – ZONA LESTE/SP","nome_comunidade":"***","localidade":"São Paulo, Brasil","organizacao":"1) AGROECOLOGIA E ECONOMIA SOLIDÁRIA NO JARDIM PALANQUE – ZONA LESTE/SP","categoria":"Economia Solidária","municipio":"Arealva","premiado":false,"uf":"SP"},"geometry":{"type":"Point","coordinates":[-49.0703911972935,-22.1094894817875]}},{"type":"Feature","properties":{"nome_acao":"1.  ENTRE O PARQUE E A FAVELA: ATHIS COMO ESTRATÉGIA SUSTENTÁVEL EM ÁREAS DE DESASTRES AMBIENTAIS","nome_comunidade":"***","localidade":"Coréia De Mesquita, Mesquita, Rio de Janeiro 26556, Brasil","organizacao":"1.  ENTRE O PARQUE E A FAVELA: ATHIS COMO ESTRATÉGIA SUSTENTÁVEL EM ÁREAS DE DESASTRES AMBIENTAIS","categoria":"Planejamento Urbano, Gestão de Riscos e Responsabilidade Climática","municipio":"Mesquita","premiado":false,"uf":"RJ"},"geometry":{"type":"Point","coordinates":[-43.436509,-22.776047]}},{"type":"Feature","properties":{"nome_acao":"15 ANOS FESTIVAL CENA PEIXINHOS ( VIVA O NASCEDOURO 30 ANOS DE MANGUE BEAT) )","nome_comunidade":"***","localidade":"Pernambuco, Brasil","organizacao":"15 ANOS FESTIVAL CENA PEIXINHOS ( VIVA O NASCEDOURO 30 ANOS DE MANGUE BEAT) )","categoria":"Cultura e Memória","municipio":"Floresta","premiado":false,"uf":"PE"},"geometry":{"type":"Point","coordinates":[-38.1601664481438,-8.42617748709789]}},{"type":"Feature","properties":{"nome_acao":"1º FESTIVAL ROCK NO SETOR","nome_comunidade":"***","localidade":"Jurunas, 66033, Belém, Pará, Brasil","organizacao":"1º FESTIVAL ROCK NO SETOR","categoria":"Cultura e Memória","municipio":"Belém","premiado":false,"uf":"PA"},"geometry":{"type":"Point","coordinates":[-48.491452,-1.465729]}},{"type":"Feature","properties":{"nome_acao":"2º FESTIVAL DE CULTURAS DA GRANJA DO TORTO","nome_comunidade":"***","localidade":"Granja Do Torto Brasília - Distrito Federal, 70636, Brasil","organizacao":"2º FESTIVAL DE CULTURAS DA GRANJA DO TORTO","categoria":"Cultura e Memória","municipio":"Brasília","premiado":false,"uf":"DF"},"geometry":{"type":"Point","coordinates":[-47.9079385,-15.7252688]}},{"type":"Feature","properties":{"nome_acao":"2º SEMINÁRIO UNDIRÊ: SONHANDO MUNDOS POSSÍVEIS","nome_comunidade":"***","localidade":"Perus, São Paulo, São Paulo, Brasil","organizacao":"2º SEMINÁRIO UNDIRÊ: SONHANDO MUNDOS POSSÍVEIS","categoria":"Cultura e Memória","municipio":"São Paulo","premiado":false,"uf":"SP"},"geometry":{"type":"Point","coordinates":[-46.7537,-23.4072]}},{"type":"Feature","properties":{"nome_acao":"38 • EDIÇÃO FESTA DO REI ZUMBI DOS PALMARES SEMANA DA CONSCIÊNCIA NEGRA 20 DE NOVEMBRO.","nome_comunidade":"***","localidade":"Conceição, Tururu, Ceará, Brasil","organizacao":"38 • EDIÇÃO FESTA DO REI ZUMBI DOS PALMARES SEMANA DA CONSCIÊNCIA NEGRA 20 DE NOVEMBRO.","categoria":"Cultura e Memória","municipio":"Tururu","premiado":false,"uf":"CE"},"geometry":{"type":"Point","coordinates":[-39.378427,-3.501685]}},{"type":"Feature","properties":{"nome_acao":"3º ROUND - CIRCUITO DE RIMA IMPROVISADA","nome_comunidade":"***","localidade":"Salvador, Bahia, Brasil","organizacao":"3º ROUND - CIRCUITO DE RIMA IMPROVISADA","categoria":"Cultura e Memória","municipio":"Salvador","premiado":false,"uf":"BA"},"geometry":{"type":"Point","coordinates":[-38.481277,-12.98225]}},{"type":"Feature","properties":{"nome_acao":"A ÁRVORE GENEALÓGICA DAS ORGANIZAÇÕES COMUNITÁRIAS E O PROTAGONISMO DAS MULHERES NO TERRITÓRIO RIBEIRINHO DO PORTO DO CAPIM","nome_comunidade":"***","localidade":"Rua Porto Do Capim, Varadouro, João Pessoa - Paraíba, 58010-000, Brasil","organizacao":"A ÁRVORE GENEALÓGICA DAS ORGANIZAÇÕES COMUNITÁRIAS E O PROTAGONISMO DAS MULHERES NO TERRITÓRIO RIBEIRINHO DO PORTO DO CAPIM","categoria":"Cultura e Memória","municipio":"João Pessoa","premiado":true,"uf":"PB"},"geometry":{"type":"Point","coordinates":[-34.8896666,-7.1116606]}},{"type":"Feature","properties":{"nome_acao":"A CASA DE BAMBAS","nome_comunidade":"Cidade Alta","localidade":"Estrada Do Porto Velho 199, Cordovil, Rio de Janeiro - Rio de Janeiro, 21012, Brasil","organizacao":"ASSOCIAÇÃO DE CULTURA E ARTES CASA DE BAMBAS","categoria":"Cultura e Memória","municipio":"Rio de Janeiro","premiado":false,"uf":"RJ"},"geometry":{"type":"Point","coordinates":[-43.294346,-22.822466]}},{"type":"Feature","properties":{"nome_acao":"A IMPORTÂNCIA DA ATIVIDADES FÍSICO EM PACIENTES DIABÉTICOS E HIPERTENSOS.","nome_comunidade":"Ferro aço","localidade":"Rua Santa Terezinha Alagoinhas - Bahia, 48000-000, Brasil","organizacao":"ASSOCIAÇÃO DE DIABÉTICOS DE ALAGOINHAS","categoria":"Saúde Integral e Dignidade Humana","municipio":"Alagoinhas","premiado":false,"uf":"BA"},"geometry":{"type":"Point","coordinates":[-38.4198766,-12.115681]}},{"type":"Feature","properties":{"nome_acao":"A ONG ABC VEM DESENVOLVENDO UM TRABALHO A 14 ANOS TANTO NO ÂMBITO ALIMENTAÇÃO QUANTO NA QUESTÃO DA MORADIA, FAZEMOS REUNIÕES MENSALMENTE COM A COMUNIDADE, PARTICIPAÇÃO EM TODAS DE CONVERSAS, ATENDEMOS A COMUNIDADE EM SITUAÇÃO DE VULNERABILIDADE","nome_comunidade":"Vila primeiro de outubro, guaianases, comunidade pé na jaca, cidade Tiradentes, Itaim Paulista, favela morro do acerto","localidade":"Brasília, Distrito Federal, Brasil","organizacao":"ONG ABC MUNDO NOVO","categoria":"Saúde Integral e Dignidade Humana","municipio":"São Paulo","premiado":false,"uf":"DF"},"geometry":{"type":"Point","coordinates":[-47.882317,-15.793404]}},{"type":"Feature","properties":{"nome_acao":"A PILASTRA","nome_comunidade":"***","localidade":"Sria Ii Polo De Moda Rua 20 Brasília - Distrito Federal, 71070-520, Brasil","organizacao":"A PILASTRA","categoria":"Cultura e Memória","municipio":"Brasília","premiado":false,"uf":"DF"},"geometry":{"type":"Point","coordinates":[-47.9766957,-15.8499755]}},{"type":"Feature","properties":{"nome_acao":"A PISTA","nome_comunidade":"***","localidade":"CEU Aricanduva, Rua Olga Fadel Abarca, São Paulo, São Paulo 03490, Brasil","organizacao":"A PISTA","categoria":"Comunicação, Inclusão Digital e Educação Popular","municipio":"São Paulo","premiado":false,"uf":"SP"},"geometry":{"type":"Point","coordinates":[-46.504378,-23.569527]}},{"type":"Feature","properties":{"nome_acao":"A RENDA DELAS","nome_comunidade":"***","localidade":"Chácara 97, SHSN Ch. 97, Brasília, Distrito Federal 72236, Brasil","organizacao":"A RENDA DELAS","categoria":"Economia Solidária","municipio":"Brasília","premiado":false,"uf":"DF"},"geometry":{"type":"Point","coordinates":[-48.135876,-15.820746]}},{"type":"Feature","properties":{"nome_acao":"A ROCINHA RESISTE","nome_comunidade":"***","localidade":"Rocinha, 22451, Rio de Janeiro, Rio de Janeiro, Brasil","organizacao":"A ROCINHA RESISTE","categoria":"Saúde Integral e Dignidade Humana","municipio":"Rio de Janeiro","premiado":false,"uf":"RJ"},"geometry":{"type":"Point","coordinates":[-43.2483,-22.9889]}},{"type":"Feature","properties":{"nome_acao":"A RODA DE CAPOEIRA O RESGATE DE SIGNIFICADOS, FUNDAMENTOS E TRADIÇÕES","nome_comunidade":"***","localidade":"Cachambi, 20775, Rio de Janeiro, Rio de Janeiro, Brasil","organizacao":"A RODA DE CAPOEIRA O RESGATE DE SIGNIFICADOS, FUNDAMENTOS E TRADIÇÕES","categoria":"Cultura e Memória","municipio":"Rio de Janeiro","premiado":false,"uf":"RJ"},"geometry":{"type":"Point","coordinates":[-43.2745,-22.8898]}},{"type":"Feature","properties":{"nome_acao":"A TRAMA DO ALGODÃO QUE TRANSFORMA","nome_comunidade":"***","localidade":"Porto Alegre, Rio Grande do Sul, Brasil","organizacao":"A TRAMA DO ALGODÃO QUE TRANSFORMA","categoria":"Economia Solidária","municipio":"Porto Alegre","premiado":false,"uf":"RS"},"geometry":{"type":"Point","coordinates":[-51.230377,-30.0325]}},{"type":"Feature","properties":{"nome_acao":"ABC DA AMAZÔNIA","nome_comunidade":"***","localidade":"Ananindeua, Pará, Brasil","organizacao":"ABC DA AMAZÔNIA","categoria":"Comunicação, Inclusão Digital e Educação Popular","municipio":"Ananindeua","premiado":false,"uf":"PA"},"geometry":{"type":"Point","coordinates":[-48.401662,-1.374035]}},{"type":"Feature","properties":{"nome_acao":"ABC HIP HOP KIDS","nome_comunidade":"***","localidade":"Rua Comandante Balduino, Nossa Senhora da Apresentação, Natal - Rio Grande do Norte, Brasil","organizacao":"ABC HIP HOP KIDS","categoria":"Cultura e Memória","municipio":"Natal","premiado":false,"uf":"RN"},"geometry":{"type":"Point","coordinates":[-35.2789121,-5.7311768]}},{"type":"Feature","properties":{"nome_acao":"ABRIGO LUZ SCOL","nome_comunidade":"***","localidade":"Rua Antônio Vieira 472, Da Luz, Nova Iguaçu - Rio de Janeiro, 26255-530, Brasil","organizacao":"ABRIGO LUZ SCOL","categoria":"Saúde Integral e Dignidade Humana","municipio":"Nova Iguaçu","premiado":false,"uf":"RJ"},"geometry":{"type":"Point","coordinates":[-43.464467,-22.759837]}},{"type":"Feature","properties":{"nome_acao":"ACADEMIA DE CAPOEIRA CRISTÃO ÁGAPE","nome_comunidade":"***","localidade":"Maracanaú, Ceará, Brasil","organizacao":"ACADEMIA DE CAPOEIRA CRISTÃO ÁGAPE","categoria":"Cultura e Memória","municipio":"Maracanaú","premiado":false,"uf":"CE"},"geometry":{"type":"Point","coordinates":[-38.62477,-3.877944]}},{"type":"Feature","properties":{"nome_acao":"ACAJAMAN - ASSOCIAÇÃO CULTURAL E AGRÍCOLA DOS JOVENS AMBIENTALISTAS DA PARAÍBA","nome_comunidade":"Bairro Santa Luzia","localidade":"Rua Antunes Brandão 380, Alagoa Nova - Paraíba,, Brasil","organizacao":"ACAJAMAN - ASSOCIAÇÃO CULTURAL E AGRÍCOLA DOS JOVENS AMBIENTALISTAS DA PARAÍBA","categoria":"Acesso à Justiça e Combate às Desigualdades","municipio":"Alagoa Nova","premiado":false,"uf":"PB"},"geometry":{"type":"Point","coordinates":[-35.764559,-7.065292]}},{"type":"Feature","properties":{"nome_acao":"ACAMPAMENTO AFRO GAUCHO","nome_comunidade":"***","localidade":"Rua Felisberto José Pacheco Viamão - Rio Grande do Sul, 94480, Brasil","organizacao":"ACAMPAMENTO AFRO GAUCHO","categoria":"Cultura e Memória","municipio":"Viamão","premiado":false,"uf":"RS"},"geometry":{"type":"Point","coordinates":[-51.0931301,-30.0636749]}},{"type":"Feature","properties":{"nome_acao":"AÇÃO COMUNITÁRIA CARANGUEJO UÇÁ","nome_comunidade":"***","localidade":"Usf Ilha De Deus, Recife, Pernambuco 51110, Brasil","organizacao":"AÇÃO COMUNITÁRIA CARANGUEJO UÇÁ","categoria":"Comunicação, Inclusão Digital e Educação Popular","municipio":"Recife","premiado":false,"uf":"PE"},"geometry":{"type":"Point","coordinates":[-34.901943,-8.087027]}},{"type":"Feature","properties":{"nome_acao":"AÇÃO JOVEM PROTAGONISTA","nome_comunidade":"***","localidade":"Rua Pará Pirenópolis - Goiás, Brasil","organizacao":"AÇÃO JOVEM PROTAGONISTA","categoria":"Cultura e Memória","municipio":"Pirenópolis","premiado":false,"uf":"GO"},"geometry":{"type":"Point","coordinates":[-48.948749,-15.8588281]}},{"type":"Feature","properties":{"nome_acao":"AÇAO PARA CAUSA ANIMAL","nome_comunidade":"***","localidade":"Santa Tereza do Oeste, Paraná, Brasil","organizacao":"AÇAO PARA CAUSA ANIMAL","categoria":"Soberania Alimentar e Nutricional","municipio":"Santa Tereza do Oeste","premiado":false,"uf":"PR"},"geometry":{"type":"Point","coordinates":[-53.616183,-25.051196]}},{"type":"Feature","properties":{"nome_acao":"AÇÃO SOCIAL","nome_comunidade":"Pousada da esperança 1","localidade":"Rua Miguel Debia Bauru - São Paulo, 17022, Brasil","organizacao":"COMUNIDADE EM AÇÃO","categoria":"Economia Solidária","municipio":"Bauru","premiado":false,"uf":"SP"},"geometry":{"type":"Point","coordinates":[-49.0734784,-22.2745841]}},{"type":"Feature","properties":{"nome_acao":"AÇÃO SOCIAL DE PAULISTA","nome_comunidade":"arthur Lundgren","localidade":"Rua Surubim 10, Arthur Lundgren II, Paulista - Pernambuco, Brasil","organizacao":"AÇÃO SOCIAL DE PAULISTA","categoria":"Soberania Alimentar e Nutricional","municipio":"Paulista","premiado":false,"uf":"PE"},"geometry":{"type":"Point","coordinates":[-34.894686,-7.923632]}},{"type":"Feature","properties":{"nome_acao":"AÇÃO SOCIAL VIZINHOS UNIDOS FAZEM A D","nome_comunidade":"Residencial jardins dos ipês","localidade":"Castanhal, Pará, Brasil","organizacao":"VIZINHOS UNIDOS FAZEM A DIFERENÇA","categoria":"Economia Solidária","municipio":"Castanhal","premiado":false,"uf":"PA"},"geometry":{"type":"Point","coordinates":[-47.92239,-1.292703]}},{"type":"Feature","properties":{"nome_acao":"ACARI: TERRITÓRIO DE DIREITOS","nome_comunidade":"***","localidade":"Acari, 21531, Rio de Janeiro, Rio de Janeiro, Brasil","organizacao":"ACARI: TERRITÓRIO DE DIREITOS","categoria":"Acesso à Justiça e Combate às Desigualdades","municipio":"Rio de Janeiro","premiado":false,"uf":"RJ"},"geometry":{"type":"Point","coordinates":[-43.3407,-22.8222]}},{"type":"Feature","properties":{"nome_acao":"ACEESCULT","nome_comunidade":"ACEESCULT","localidade":"Timon, Maranhão, Brasil","organizacao":"ACEESCULT","categoria":"Economia Solidária","municipio":"Timon","premiado":false,"uf":"MA"},"geometry":{"type":"Point","coordinates":[-42.844952,-5.102332]}},{"type":"Feature","properties":{"nome_acao":"ACEESCULT- ASSOCIAÇÃO DE CIDADÃOS POR MAIS EDUCAÇÃO ESPORTE SAÚDE CULTURA E LAZER EM TIMON","nome_comunidade":"Mutirão","localidade":"Timon, Maranhão, Brasil","organizacao":"ACEESCULT","categoria":"Acesso à Justiça e Combate às Desigualdades","municipio":"Timon","premiado":false,"uf":"MA"},"geometry":{"type":"Point","coordinates":[-42.844952,-5.102332]}},{"type":"Feature","properties":{"nome_acao":"ACESSO À JUSTIÇA , REPARAÇÃO DE DANOS E FORTALECIMENTO COMUNITÁRIO ","nome_comunidade":"***","localidade":"Capão Redondo, São Paulo, São Paulo, Brasil","organizacao":"ACESSO À JUSTIÇA , REPARAÇÃO DE DANOS E FORTALECIMENTO COMUNITÁRIO ","categoria":"Acesso à Justiça e Combate às Desigualdades","municipio":"São Paulo","premiado":false,"uf":"SP"},"geometry":{"type":"Point","coordinates":[-46.7793,-23.6707]}},{"type":"Feature","properties":{"nome_acao":"AÇÕES COLETIVAS \"CONSTRUÇÕES\" NA PERIFERIA DE SALVADOR","nome_comunidade":"Cajazeiras","localidade":"Rua Álvaro Da Franca Rocha Salvador - Bahia, 41334, Brasil","organizacao":"***","categoria":"Planejamento Urbano, Gestão de Riscos e Responsabilidade Climática","municipio":"Salvador","premiado":false,"uf":"BA"},"geometry":{"type":"Point","coordinates":[-38.4255027,-12.8976925]}},{"type":"Feature","properties":{"nome_acao":"ACORDA POVO POR JUSTIÇA SOCIAL E UMA CULTURA DE PAZ","nome_comunidade":"***","localidade":"Peixinhos, 53220, Olinda, Pernambuco, Brasil","organizacao":"ACORDA POVO POR JUSTIÇA SOCIAL E UMA CULTURA DE PAZ","categoria":"Cultura e Memória","municipio":"Olinda","premiado":false,"uf":"PE"},"geometry":{"type":"Point","coordinates":[-34.8721,-8.0138]}},{"type":"Feature","properties":{"nome_acao":"AFETIVAS MARMITA SAUDÁVEL - PRODUZINDO ELOS ENTRE A GERAÇÃO DE RENDA E FORTALECIMENTO DA AUTONOMIA DAS MULHERES","nome_comunidade":"***","localidade":"Olinda, Pernambuco, Brasil","organizacao":"AFETIVAS MARMITA SAUDÁVEL - PRODUZINDO ELOS ENTRE A GERAÇÃO DE RENDA E FORTALECIMENTO DA AUTONOMIA DAS MULHERES","categoria":"Soberania Alimentar e Nutricional","municipio":"Olinda","premiado":false,"uf":"PE"},"geometry":{"type":"Point","coordinates":[-34.845955,-7.99864]}},{"type":"Feature","properties":{"nome_acao":"AFOXÉ EM MOVIMENTO: DOAÇÃO É ATO DE AMOR","nome_comunidade":"***","localidade":"Salvador, Bahia, Brasil","organizacao":"AFOXÉ EM MOVIMENTO: DOAÇÃO É ATO DE AMOR","categoria":"Soberania Alimentar e Nutricional","municipio":"Salvador","premiado":false,"uf":"BA"},"geometry":{"type":"Point","coordinates":[-38.481277,-12.98225]}},{"type":"Feature","properties":{"nome_acao":"AFRICORES","nome_comunidade":"***","localidade":"Travessa Gameleira 25, Redinha, Natal - Rio Grande do Norte, 59122-225, Brasil","organizacao":"AFRICORES","categoria":"Cultura e Memória","municipio":"Natal","premiado":false,"uf":"RN"},"geometry":{"type":"Point","coordinates":[-35.211564,-5.741995]}},{"type":"Feature","properties":{"nome_acao":"AFRO MEMÓRIAS ATUAIS","nome_comunidade":"Zona oeste","localidade":"Rio de Janeiro, Rio de Janeiro, Brasil","organizacao":"AFRO MEMÓRIAS ATUAIS","categoria":"Acesso à Justiça e Combate às Desigualdades","municipio":"Rio de Janeiro","premiado":false,"uf":"RJ"},"geometry":{"type":"Point","coordinates":[-43.209373,-22.911014]}},{"type":"Feature","properties":{"nome_acao":"AFROCICLO: REDE DE MOBILIZAÇÃO SOCIOAMBIENTAL E CULTURAL","nome_comunidade":"***","localidade":"Santo Amaro, Bahia, Brasil","organizacao":"AFROCICLO: REDE DE MOBILIZAÇÃO SOCIOAMBIENTAL E CULTURAL","categoria":"Planejamento Urbano, Gestão de Riscos e Responsabilidade Climática","municipio":"Santo Amaro","premiado":false,"uf":"BA"},"geometry":{"type":"Point","coordinates":[-38.706045,-12.551969]}},{"type":"Feature","properties":{"nome_acao":"AFROFEST - CULTURA NEGRA AMBULANTE","nome_comunidade":"***","localidade":"Tupã, São Paulo, Brasil","organizacao":"AFROFEST - CULTURA NEGRA AMBULANTE","categoria":"Cultura e Memória","municipio":"Tupã","premiado":false,"uf":"SP"},"geometry":{"type":"Point","coordinates":[-50.514126,-21.934913]}},{"type":"Feature","properties":{"nome_acao":"AFRONUTRIR - COMUNAS LBTS  ( PLATAFORMA DE ARRECADAÇÃO DE FUNDO DE AÇÃO EMERGENCIAL DE ENFRENTAMENTO À MISÉRIA E A FOME DE AFROLBTS E MULHERES NEGRAS CHEFES DE FAMÍLIA EM EXTREMA POBREZA)","nome_comunidade":"***","localidade":"Rua Dorvalina Nazário, Medianeira, Porto Alegre - Rio Grande do Sul, 90880-990, Brasil","organizacao":"AFRONUTRIR - COMUNAS LBTS  ( PLATAFORMA DE ARRECADAÇÃO DE FUNDO DE AÇÃO EMERGENCIAL DE ENFRENTAMENTO À MISÉRIA E A FOME DE AFROLBTS E MULHERES NEGRAS CHEFES DE FAMÍLIA EM EXTREMA POBREZA)","categoria":"Soberania Alimentar e Nutricional","municipio":"Porto Alegre","premiado":false,"uf":"RS"},"geometry":{"type":"Point","coordinates":[-51.2112135,-30.063377]}},{"type":"Feature","properties":{"nome_acao":"AFROSTYLE: COLETIVO NEGRO E PERIFERIA ATIVA","nome_comunidade":"***","localidade":"Esplanada, Teresina, Piauí, Brasil","organizacao":"AFROSTYLE: COLETIVO NEGRO E PERIFERIA ATIVA","categoria":"Cultura e Memória","municipio":"Teresina","premiado":false,"uf":"PI"},"geometry":{"type":"Point","coordinates":[-42.75,-5.19]}},{"type":"Feature","properties":{"nome_acao":"AGÊNCIA DE NOTÍCIAS DA FAVELA","nome_comunidade":"Ocupação Tiradentes, Vila Formosa, Tatuquara, Vila Zumbi","localidade":"Curitiba, Paraná, Brasil","organizacao":"UNIÃO BRASILEIRA DE MULHERES","categoria":"Saúde Integral e Dignidade Humana","municipio":"Curitiba","premiado":false,"uf":"PR"},"geometry":{"type":"Point","coordinates":[-49.271272,-25.429596]}},{"type":"Feature","properties":{"nome_acao":"AGÊNCIA DE NOTÍCIAS DAS FAVELAS- ANF","nome_comunidade":"Bairro da Paz","localidade":"Salvador, Bahia, Brasil","organizacao":"AGÊNCIA DE NOTÍCIAS DAS FAVELAS- ANF","categoria":"Comunicação, Inclusão Digital e Educação Popular","municipio":"Salvador","premiado":false,"uf":"BA"},"geometry":{"type":"Point","coordinates":[-38.481277,-12.98225]}},{"type":"Feature","properties":{"nome_acao":"AGÊNCIA DE REDES PARA JUVENTUDE","nome_comunidade":"***","localidade":"Santa Cruz, 23555, Rio de Janeiro, Rio de Janeiro, Brasil","organizacao":"AGÊNCIA DE REDES PARA JUVENTUDE","categoria":"Economia Solidária","municipio":"Rio de Janeiro","premiado":false,"uf":"RJ"},"geometry":{"type":"Point","coordinates":[-43.7027,-22.9144]}},{"type":"Feature","properties":{"nome_acao":"AGÊNCIA MURAL DE JORNALISMO DAS PERIFERIAS","nome_comunidade":"***","localidade":"São Paulo, São Paulo, Brasil","organizacao":"AGÊNCIA MURAL DE JORNALISMO DAS PERIFERIAS","categoria":"Comunicação, Inclusão Digital e Educação Popular","municipio":"São Paulo","premiado":false,"uf":"SP"},"geometry":{"type":"Point","coordinates":[-46.633382,-23.550651]}},{"type":"Feature","properties":{"nome_acao":"AGENDA COLETIVA DE PREVENÇÃO E ENFRENTAMENTO A LETALIDADE JUVENIL","nome_comunidade":"***","localidade":"Maceió, Alagoas, Brasil","organizacao":"AGENDA COLETIVA DE PREVENÇÃO E ENFRENTAMENTO A LETALIDADE JUVENIL","categoria":"Acesso à Justiça e Combate às Desigualdades","municipio":"Maceió","premiado":false,"uf":"AL"},"geometry":{"type":"Point","coordinates":[-35.733926,-9.647684]}},{"type":"Feature","properties":{"nome_acao":"AGENDA PERIFÉRICA","nome_comunidade":"***","localidade":"São Paulo, São Paulo, Brasil","organizacao":"AGENDA PERIFÉRICA","categoria":"Comunicação, Inclusão Digital e Educação Popular","municipio":"São Paulo","premiado":false,"uf":"SP"},"geometry":{"type":"Point","coordinates":[-46.633382,-23.550651]}},{"type":"Feature","properties":{"nome_acao":"AGENTES POPULARES DE ALIMENTAÇÃO","nome_comunidade":"***","localidade":"São Paulo, São Paulo, Brasil","organizacao":"AGENTES POPULARES DE ALIMENTAÇÃO","categoria":"Soberania Alimentar e Nutricional","municipio":"São Paulo","premiado":false,"uf":"SP"},"geometry":{"type":"Point","coordinates":[-46.633382,-23.550651]}},{"type":"Feature","properties":{"nome_acao":"AGREMIAÇÃO BOI DIAMANTE- OFICINA TAMBORES PRO BOI DANÇAR","nome_comunidade":"***","localidade":"Arcoverde, Pernambuco, Brasil","organizacao":"AGREMIAÇÃO BOI DIAMANTE- OFICINA TAMBORES PRO BOI DANÇAR","categoria":"Cultura e Memória","municipio":"Arcoverde","premiado":false,"uf":"PE"},"geometry":{"type":"Point","coordinates":[-37.057748,-8.415192]}},{"type":"Feature","properties":{"nome_acao":"AGRICULTURA URBANA NUMA PERSPECTIVA DE PRÁTICAS AMBIENTAIS E INTEGRATIVAS","nome_comunidade":"***","localidade":"João Pessoa, Paraíba, Brasil","organizacao":"AGRICULTURA URBANA NUMA PERSPECTIVA DE PRÁTICAS AMBIENTAIS E INTEGRATIVAS","categoria":"Soberania Alimentar e Nutricional","municipio":"João Pessoa","premiado":false,"uf":"PB"},"geometry":{"type":"Point","coordinates":[-34.882028,-7.121598]}},{"type":"Feature","properties":{"nome_acao":"ÁGUAS POTIGUARA","nome_comunidade":"***","localidade":"Baía da Traição, Paraíba, Brasil","organizacao":"ÁGUAS POTIGUARA","categoria":"Planejamento Urbano, Gestão de Riscos e Responsabilidade Climática","municipio":"Baía da Traição","premiado":false,"uf":"PB"},"geometry":{"type":"Point","coordinates":[-34.937124,-6.691258]}},{"type":"Feature","properties":{"nome_acao":"ALDEIA HIP HOP - CASA DO HIP HOP CEARENSE","nome_comunidade":"Nova Metrópole","localidade":"Rua 210, Nova Metrópole, Caucaia - Ceará, 61600-000, Brasil","organizacao":"ALDEIA HIP HOP / CGC","categoria":"Saúde Integral e Dignidade Humana","municipio":"Caucaia","premiado":false,"uf":"CE"},"geometry":{"type":"Point","coordinates":[-38.657898,-3.7656855]}},{"type":"Feature","properties":{"nome_acao":"ALFABETIZAÇÃO DE JOVENS ADULTOS E IDOSOS , ARTESANATO E ATIVIDADES COM GRUPOS DE MULHERES","nome_comunidade":"Itapoa Doroty Café sem troco St Maria","localidade":"Conjunto B 01, Brasília - Distrito Federal, 73084-010, Brasil","organizacao":"MOVIMENTO DE EDUCAÇÃO DE BASE","categoria":"Acesso à Justiça e Combate às Desigualdades","municipio":"Brasília","premiado":false,"uf":"DF"},"geometry":{"type":"Point","coordinates":[-47.848887,-15.637736]}},{"type":"Feature","properties":{"nome_acao":"ALFAZENDO BRASIL RJ RIO","nome_comunidade":"Cidade de Deus RJ","localidade":"Travessa Pafos 26, Cidade de Deus, Rio de Janeiro - Rio de Janeiro, 22773, Brasil","organizacao":"ALFAZENDO BRASIL RJ RIO","categoria":"Soberania Alimentar e Nutricional","municipio":"Rio de Janeiro","premiado":false,"uf":"RJ"},"geometry":{"type":"Point","coordinates":[-43.364338,-22.946749]}},{"type":"Feature","properties":{"nome_acao":"ALIMENTANDO O FUTURO","nome_comunidade":"***","localidade":"Rua Idalina Gonçalves Dias, Jardim São Camilo, Jundiaí - São Paulo, 13216-626, Brasil","organizacao":"ALIMENTANDO O FUTURO","categoria":"Soberania Alimentar e Nutricional","municipio":"Jundiaí","premiado":false,"uf":"SP"},"geometry":{"type":"Point","coordinates":[-46.8696717,-23.1752017]}},{"type":"Feature","properties":{"nome_acao":"ALO ALEGRIA BRASIL","nome_comunidade":"***","localidade":"Estrada Adhemar Bebiano 2334, Inhaúma, Rio de Janeiro - Rio de Janeiro, 20766, Brasil","organizacao":"ALO ALEGRIA BRASIL","categoria":"Economia Solidária","municipio":"Rio de Janeiro","premiado":false,"uf":"RJ"},"geometry":{"type":"Point","coordinates":[-43.281044,-22.871823]}},{"type":"Feature","properties":{"nome_acao":"ALTERNATIVO: UMA EXPERIÊNCIA DE EDUCAÇÃO POPULAR E DE INCLUSÃO DIGITAL NA AMAZÔNIA","nome_comunidade":"***","localidade":"Rua Coronel Ferreira De Araújo, Petrópolis, Manaus - Amazonas, 69063-000, Brasil","organizacao":"ALTERNATIVO: UMA EXPERIÊNCIA DE EDUCAÇÃO POPULAR E DE INCLUSÃO DIGITAL NA AMAZÔNIA","categoria":"Comunicação, Inclusão Digital e Educação Popular","municipio":"Manaus","premiado":false,"uf":"AM"},"geometry":{"type":"Point","coordinates":[-59.995755,-3.1175315]}},{"type":"Feature","properties":{"nome_acao":"ALTERNATIVO: UMA EXPERIÊNCIA DE EDUCAÇÃO POPULAR E INCLUSÃO DIGITAL NA AMAZÔNIA","nome_comunidade":"***","localidade":"Rua Coronel Ferreira De Araújo, Petrópolis, Manaus - Amazonas, 69063-000, Brasil","organizacao":"ALTERNATIVO: UMA EXPERIÊNCIA DE EDUCAÇÃO POPULAR E INCLUSÃO DIGITAL NA AMAZÔNIA","categoria":"Comunicação, Inclusão Digital e Educação Popular","municipio":"Manaus","premiado":false,"uf":"AM"},"geometry":{"type":"Point","coordinates":[-59.995755,-3.1175315]}},{"type":"Feature","properties":{"nome_acao":"ALVARENGA TV","nome_comunidade":"***","localidade":"Estrada Do Alvarenga 1264, São Paulo - São Paulo, 04467-000, Brasil","organizacao":"ALVARENGA TV","categoria":"Comunicação, Inclusão Digital e Educação Popular","municipio":"São Paulo","premiado":false,"uf":"SP"},"geometry":{"type":"Point","coordinates":[-46.662407,-23.692109]}},{"type":"Feature","properties":{"nome_acao":"AMA","nome_comunidade":"***","localidade":"Samarita, São Vicente, São Paulo, Brasil","organizacao":"AMA","categoria":"Saúde Integral e Dignidade Humana","municipio":"São Vicente","premiado":false,"uf":"SP"},"geometry":{"type":"Point","coordinates":[-46.47,-24]}},{"type":"Feature","properties":{"nome_acao":"AMAZÔNIA URBANA:  EMPREENDEDORISMO SUSTENTÁVEL PARA  MULHERES PERIFÉRICAS VIGIENSES – PA","nome_comunidade":"***","localidade":"Vigia, Pará, Brasil","organizacao":"AMAZÔNIA URBANA:  EMPREENDEDORISMO SUSTENTÁVEL PARA  MULHERES PERIFÉRICAS VIGIENSES – PA","categoria":"Economia Solidária","municipio":"Vigia","premiado":false,"uf":"PA"},"geometry":{"type":"Point","coordinates":[-48.143287,-0.854603]}},{"type":"Feature","properties":{"nome_acao":"AMIGOS DO BAIRRO ZL","nome_comunidade":"***","localidade":"São Paulo, São Paulo, Brasil","organizacao":"AMIGOS DO BAIRRO ZL","categoria":"Cultura e Memória","municipio":"São Paulo","premiado":false,"uf":"SP"},"geometry":{"type":"Point","coordinates":[-46.633382,-23.550651]}},{"type":"Feature","properties":{"nome_acao":"AMOR SEM PRECONCEITO","nome_comunidade":"***","localidade":"Magé, Rio de Janeiro, Brasil","organizacao":"AMOR SEM PRECONCEITO","categoria":"Soberania Alimentar e Nutricional","municipio":"Magé","premiado":false,"uf":"RJ"},"geometry":{"type":"Point","coordinates":[-43.042616,-22.660422]}},{"type":"Feature","properties":{"nome_acao":"AMORA BALAIO CRIATIVO","nome_comunidade":"Jardim Bom Pastor","localidade":"Rua Sebastião Pedroso, Jardim Bom Pastor, Santo André - São Paulo, 09051, Brasil","organizacao":"AMORA BALAIO CRIATIVO E ESPAÇO CULTURAL CIRCO DO ASFALTO","categoria":"Cultura e Memória","municipio":"São Paulo","premiado":false,"uf":"SP"},"geometry":{"type":"Point","coordinates":[-46.5533636,-23.6803521]}},{"type":"Feature","properties":{"nome_acao":"AMORFORTE PROJETOS","nome_comunidade":"***","localidade":"Rua Doutor Aniceto Ribeiro Varejão 27, Torrões, Recife - Pernambuco, 50761, Brasil","organizacao":"AMORFORTE PROJETOS","categoria":"Planejamento Urbano, Gestão de Riscos e Responsabilidade Climática","municipio":"Recife","premiado":false,"uf":"PE"},"geometry":{"type":"Point","coordinates":[-34.931847,-8.06538]}},{"type":"Feature","properties":{"nome_acao":"AMOU - PROJETO AMIGOS E MORADORES UNIDOS","nome_comunidade":"***","localidade":"São Vicente, São Paulo, Brasil","organizacao":"AMOU - PROJETO AMIGOS E MORADORES UNIDOS","categoria":"Saúde Integral e Dignidade Humana","municipio":"São Vicente","premiado":false,"uf":"SP"},"geometry":{"type":"Point","coordinates":[-46.384702,-23.960369]}},{"type":"Feature","properties":{"nome_acao":"AMPAC – ASSOCIAÇÃO DE MÃE, PAI, ADOLESCENTE DO COQUE","nome_comunidade":"***","localidade":"Recife, Pernambuco, Brasil","organizacao":"AMPAC – ASSOCIAÇÃO DE MÃE, PAI, ADOLESCENTE DO COQUE","categoria":"Comunicação, Inclusão Digital e Educação Popular","municipio":"Recife","premiado":false,"uf":"PE"},"geometry":{"type":"Point","coordinates":[-34.884819,-8.058493]}},{"type":"Feature","properties":{"nome_acao":"AMPAC – ASSOCIAÇÃO DE MÃE, PAI, ADOLESCENTE DO COQUE.","nome_comunidade":"Coque","localidade":"Rua Catalão 92, Recantus, Belford Roxo - Rio de Janeiro, 26163-340, Brasil","organizacao":"AMPAC – ASSOCIAÇÃO DE MÃE, PAI, ADOLESCENTE DO COQUE.","categoria":"Comunicação, Inclusão Digital e Educação Popular","municipio":"Recife","premiado":false,"uf":"RJ"},"geometry":{"type":"Point","coordinates":[-43.392161,-22.718132]}},{"type":"Feature","properties":{"nome_acao":"AMREDS PELO PLANEJAMENTO DO CANTINHO DE TODOS","nome_comunidade":"***","localidade":"Brasília, Distrito Federal, Brasil","organizacao":"AMREDS PELO PLANEJAMENTO DO CANTINHO DE TODOS","categoria":"Planejamento Urbano, Gestão de Riscos e Responsabilidade Climática","municipio":"Brasília","premiado":false,"uf":"DF"},"geometry":{"type":"Point","coordinates":[-47.882317,-15.793404]}},{"type":"Feature","properties":{"nome_acao":"AMUTAM","nome_comunidade":"TAMOIOS, SEGUNDAO DISTRITO DE CABO FRIOA","localidade":"Rua Cabo Frio 30, Cabo Frio - Rio de Janeiro, 28927-000, Brasil","organizacao":"AMUTAM- ASSOCIAÇÃO DAS MULHERES DE TAMOIOS","categoria":"Acesso à Justiça e Combate às Desigualdades","municipio":"Cabo Frio","premiado":false,"uf":"RJ"},"geometry":{"type":"Point","coordinates":[-42.004811,-22.619173]}},{"type":"Feature","properties":{"nome_acao":"ANF - AGÊNCIA DE NOTÍCIAS DAS FAVELAS","nome_comunidade":"Várias","localidade":"Rio de Janeiro, Rio de Janeiro, Brasil","organizacao":"ANF -  AGÊNCIA DE NOTÍCIAS DAS FAVELAS","categoria":"Comunicação, Inclusão Digital e Educação Popular","municipio":"Rio de Janeiro","premiado":false,"uf":"RJ"},"geometry":{"type":"Point","coordinates":[-43.209373,-22.911014]}},{"type":"Feature","properties":{"nome_acao":"ANGELA SABINO DANCE","nome_comunidade":"***","localidade":"Pedreira, São Paulo, São Paulo, Brasil","organizacao":"ANGELA SABINO DANCE","categoria":"Saúde Integral e Dignidade Humana","municipio":"São Paulo","premiado":false,"uf":"SP"},"geometry":{"type":"Point","coordinates":[-46.6519,-23.7079]}},{"type":"Feature","properties":{"nome_acao":"AO SOM DO BERIMBAU","nome_comunidade":"***","localidade":"Goianinha, Rio Grande do Norte, Brasil","organizacao":"AO SOM DO BERIMBAU","categoria":"Cultura e Memória","municipio":"Goianinha","premiado":false,"uf":"RN"},"geometry":{"type":"Point","coordinates":[-35.209245,-6.266354]}},{"type":"Feature","properties":{"nome_acao":"APAMPA LIFE","nome_comunidade":"***","localidade":"Avenida Macedônia, Restinga, Porto Alegre - Rio Grande do Sul, 91790-400, Brasil","organizacao":"APAMPA LIFE","categoria":"Comunicação, Inclusão Digital e Educação Popular","municipio":"Porto Alegre","premiado":false,"uf":"RS"},"geometry":{"type":"Point","coordinates":[-51.1415294,-30.1501813]}},{"type":"Feature","properties":{"nome_acao":"APERTA O PAY","nome_comunidade":"***","localidade":"Rua Do Libretista, Bangu, Rio de Janeiro - Rio de Janeiro, 21842, Brasil","organizacao":"APERTA O PAY","categoria":"Acesso à Justiça e Combate às Desigualdades","municipio":"Rio de Janeiro","premiado":false,"uf":"RJ"},"geometry":{"type":"Point","coordinates":[-43.4786992,-22.8706658]}},{"type":"Feature","properties":{"nome_acao":"APITAÇO PELO FIM DA VIOLÊNCIA CONTRA A MULHER - GRUPO DE MULHERES CIDADANIA FEMININA","nome_comunidade":"***","localidade":"Rua Córrego Do Euclides, Alto José Bonifácio, Recife - Pernambuco, 52080, Brasil","organizacao":"APITAÇO PELO FIM DA VIOLÊNCIA CONTRA A MULHER - GRUPO DE MULHERES CIDADANIA FEMININA","categoria":"Acesso à Justiça e Combate às Desigualdades","municipio":"Recife","premiado":false,"uf":"PE"},"geometry":{"type":"Point","coordinates":[-34.9133056,-8.0170536]}},{"type":"Feature","properties":{"nome_acao":"APLICATIVO MOBILE - JUNGLE BOAT","nome_comunidade":"***","localidade":"Avenida Bernardo Sayão, Jurunas, Belém - Pará, 66023-130, Brasil","organizacao":"APLICATIVO MOBILE - JUNGLE BOAT","categoria":"Planejamento Urbano, Gestão de Riscos e Responsabilidade Climática","municipio":"Belém","premiado":false,"uf":"PA"},"geometry":{"type":"Point","coordinates":[-48.5008809,-1.4698985]}},{"type":"Feature","properties":{"nome_acao":"APRENDENDO COM O BAMBA DO MORRO: XX RODA DA PAZ E CHAMADA DE ANGOLA","nome_comunidade":"***","localidade":"Ilhéus, Bahia, Brasil","organizacao":"APRENDENDO COM O BAMBA DO MORRO: XX RODA DA PAZ E CHAMADA DE ANGOLA","categoria":"Cultura e Memória","municipio":"Ilhéus","premiado":false,"uf":"BA"},"geometry":{"type":"Point","coordinates":[-39.045384,-14.792599]}},{"type":"Feature","properties":{"nome_acao":"AR DA MATA","nome_comunidade":"***","localidade":"São Paulo, São Paulo, Brasil","organizacao":"AR DA MATA","categoria":"Saúde Integral e Dignidade Humana","municipio":"São Paulo","premiado":false,"uf":"SP"},"geometry":{"type":"Point","coordinates":[-46.633382,-23.550651]}},{"type":"Feature","properties":{"nome_acao":"ARENA 44","nome_comunidade":"Ititioca","localidade":"Rua Costa Monteiro, Ititioca, Niterói - Rio de Janeiro, 24315-070, Brasil","organizacao":"ASSOCIAÇÃO DE CAPOEIRA BARRAVENTO","categoria":"Cultura e Memória","municipio":"Niterói","premiado":false,"uf":"RJ"},"geometry":{"type":"Point","coordinates":[-43.0774615,-22.8955275]}},{"type":"Feature","properties":{"nome_acao":"ÀRETÉ - EDUCAÇÃO, CULTURA, LEITURAÇÃO E DIREITOS HUMANOS ","nome_comunidade":"***","localidade":"Aparecida de Goiânia, Goiás, Brasil","organizacao":"ÀRETÉ - EDUCAÇÃO, CULTURA, LEITURAÇÃO E DIREITOS HUMANOS ","categoria":"Acesso à Justiça e Combate às Desigualdades","municipio":"Aparecida de Goiânia","premiado":false,"uf":"GO"},"geometry":{"type":"Point","coordinates":[-49.245255,-16.822677]}},{"type":"Feature","properties":{"nome_acao":"ARQVIVA","nome_comunidade":"***","localidade":"Aparecida de Goiânia, Goiás, Brasil","organizacao":"ARQVIVA","categoria":"Planejamento Urbano, Gestão de Riscos e Responsabilidade Climática","municipio":"Aparecida de Goiânia","premiado":false,"uf":"GO"},"geometry":{"type":"Point","coordinates":[-49.245255,-16.822677]}},{"type":"Feature","properties":{"nome_acao":"ARRAIÁ DA CUFA","nome_comunidade":"***","localidade":"Peixoto de Azevedo, Mato Grosso, Brasil","organizacao":"ARRAIÁ DA CUFA","categoria":"Cultura e Memória","municipio":"Peixoto de Azevedo","premiado":false,"uf":"MT"},"geometry":{"type":"Point","coordinates":[-54.991986,-10.24292]}},{"type":"Feature","properties":{"nome_acao":"ARRAIÁ DO TIO JOÃO","nome_comunidade":"***","localidade":"Luziânia, Goiás, Brasil","organizacao":"ARRAIÁ DO TIO JOÃO","categoria":"Cultura e Memória","municipio":"Luziânia","premiado":false,"uf":"GO"},"geometry":{"type":"Point","coordinates":[-47.950028,-16.253546]}},{"type":"Feature","properties":{"nome_acao":"ARTE DAS YABAS - AFOXÉ FILHAS DE GANDHY","nome_comunidade":"***","localidade":"Pelourinho, Pelourinho, Salvador, Bahia 40255, Brasil","organizacao":"ARTE DAS YABAS - AFOXÉ FILHAS DE GANDHY","categoria":"Cultura e Memória","municipio":"Salvador","premiado":false,"uf":"BA"},"geometry":{"type":"Point","coordinates":[-38.49766425,-12.97772525]}},{"type":"Feature","properties":{"nome_acao":"ARTE DE RUA","nome_comunidade":"***","localidade":"Botucatu, São Paulo, Brasil","organizacao":"ARTE DE RUA","categoria":"Cultura e Memória","municipio":"Botucatu","premiado":false,"uf":"SP"},"geometry":{"type":"Point","coordinates":[-48.441071,-22.887963]}},{"type":"Feature","properties":{"nome_acao":"ARTE E CULTURA LGBT","nome_comunidade":"***","localidade":"Qnm 4 Conjunto I Brasília - Distrito Federal, 72210-049, Brasil","organizacao":"ARTE E CULTURA LGBT","categoria":"Comunicação, Inclusão Digital e Educação Popular","municipio":"Brasília","premiado":false,"uf":"DF"},"geometry":{"type":"Point","coordinates":[-48.1083132,-15.8142112]}},{"type":"Feature","properties":{"nome_acao":"ARTE E CULTURA NA PERIFERIA","nome_comunidade":"***","localidade":"Pescaria, Maceió, Alagoas, Brasil","organizacao":"ARTE E CULTURA NA PERIFERIA","categoria":"Cultura e Memória","municipio":"Maceió","premiado":false,"uf":"AL"},"geometry":{"type":"Point","coordinates":[-35.6247,-9.5472]}},{"type":"Feature","properties":{"nome_acao":"ARTE EM PNEUS: CONSTRUINDO SUSTENTABILIDADE E BELEZA PÓS DESPEJO","nome_comunidade":"***","localidade":"Estrada Da Cabrita São Cristóvão - Sergipe, Brasil","organizacao":"ARTE EM PNEUS: CONSTRUINDO SUSTENTABILIDADE E BELEZA PÓS DESPEJO","categoria":"Planejamento Urbano, Gestão de Riscos e Responsabilidade Climática","municipio":"São Cristóvão","premiado":false,"uf":"SE"},"geometry":{"type":"Point","coordinates":[-37.131587,-10.9578005]}},{"type":"Feature","properties":{"nome_acao":"ARTE FAZ PARTE - TEATRO, PROTAGONISMO E DIREITOS HUMANOS","nome_comunidade":"***","localidade":"Estrada Do Chapero Itaguaí - Rio de Janeiro, 23812-000, Brasil","organizacao":"ARTE FAZ PARTE - TEATRO, PROTAGONISMO E DIREITOS HUMANOS","categoria":"Comunicação, Inclusão Digital e Educação Popular","municipio":"Itaguaí","premiado":false,"uf":"RJ"},"geometry":{"type":"Point","coordinates":[-43.7651309,-22.8449557]}},{"type":"Feature","properties":{"nome_acao":"ARTE NA PRAÇA - CULTURA E REVOLUÇÃO","nome_comunidade":"***","localidade":"LAURO DE FREITAS, Lauro de Freitas, Bahia, Brasil","organizacao":"ARTE NA PRAÇA - CULTURA E REVOLUÇÃO","categoria":"Cultura e Memória","municipio":"Lauro de Freitas","premiado":false,"uf":"BA"},"geometry":{"type":"Point","coordinates":[-38.332973,-12.886668]}},{"type":"Feature","properties":{"nome_acao":"ARTE OCUPA","nome_comunidade":"Mossoró","localidade":"Beco Mossoro, Petrópolis, Manaus - Amazonas, 69063-000, Brasil","organizacao":"ARTE OCUPA","categoria":"Cultura e Memória","municipio":"Manaus","premiado":false,"uf":"AM"},"geometry":{"type":"Point","coordinates":[-59.999886,-3.1105917]}},{"type":"Feature","properties":{"nome_acao":"ARTE OCUPA","nome_comunidade":"Mossoró","localidade":"Rua Leopoldo Carpinteiro Péres, Petrópolis, Manaus - Amazonas, 69063-510, Brasil","organizacao":"ARTE OCUPA","categoria":"Comunicação, Inclusão Digital e Educação Popular","municipio":"Manaus","premiado":false,"uf":"AM"},"geometry":{"type":"Point","coordinates":[-59.9961825,-3.1149885]}},{"type":"Feature","properties":{"nome_acao":"ARTE PERIFÉRICA PARA CRIANÇAS","nome_comunidade":"***","localidade":"Maré, 21042, Rio de Janeiro, Rio de Janeiro, Brasil","organizacao":"ARTE PERIFÉRICA PARA CRIANÇAS","categoria":"Cultura e Memória","municipio":"Rio de Janeiro","premiado":false,"uf":"RJ"},"geometry":{"type":"Point","coordinates":[-43.2426,-22.8592]}},{"type":"Feature","properties":{"nome_acao":"ARTE, HORTA & CIA - PROGRAMA DE GERAÇÃO DE TRABALHO E RENDA.","nome_comunidade":"***","localidade":"Colônia Juliano Moreira, Jacarepaguá, Rio de Janeiro, Rio de Janeiro 22713, Brasil","organizacao":"ARTE, HORTA & CIA - PROGRAMA DE GERAÇÃO DE TRABALHO E RENDA.","categoria":"Saúde Integral e Dignidade Humana","municipio":"Rio de Janeiro","premiado":false,"uf":"RJ"},"geometry":{"type":"Point","coordinates":[-43.393235,-22.939958]}},{"type":"Feature","properties":{"nome_acao":"ARTEMISIA - LETRAMENTO SOCIAL E EMPRENDEDORISMO FEMININO","nome_comunidade":"Monjolos","localidade":"Rua Joao Batista De Oliveira, Monjolos, São Gonçalo - Rio de Janeiro, 24723, Brasil","organizacao":"MOVIMENTO CIDADE NO FEMININO","categoria":"Planejamento Urbano, Gestão de Riscos e Responsabilidade Climática","municipio":"São Gonçalo","premiado":false,"uf":"RJ"},"geometry":{"type":"Point","coordinates":[-42.9395187,-22.8164463]}},{"type":"Feature","properties":{"nome_acao":"ARTES NAS FAVELAS","nome_comunidade":"Chapadao","localidade":"Rio de Janeiro, Rio de Janeiro, Brasil","organizacao":"ARTES NAS FAVELAS","categoria":"Economia Solidária","municipio":"Rio de Janeiro","premiado":false,"uf":"RJ"},"geometry":{"type":"Point","coordinates":[-43.209373,-22.911014]}},{"type":"Feature","properties":{"nome_acao":"ARTESANATO PESQUEIRO E NAVAL NA COMUNIDADE DA PRAINHA DO BAIRRO INDUSTRIAL","nome_comunidade":"***","localidade":"Avenida General Calazans 1112, Industrial, Aracaju - Sergipe, 49065-420, Brasil","organizacao":"ARTESANATO PESQUEIRO E NAVAL NA COMUNIDADE DA PRAINHA DO BAIRRO INDUSTRIAL","categoria":"Planejamento Urbano, Gestão de Riscos e Responsabilidade Climática","municipio":"Aracaju","premiado":false,"uf":"SE"},"geometry":{"type":"Point","coordinates":[-37.048111,-10.890094]}},{"type":"Feature","properties":{"nome_acao":"ARTISTAS CANHOTOS","nome_comunidade":"FAG NOR E GOJ JUR localizada junto a Estação Rodoviária e junto ao parque da EFRICA, ambos em Passo Fundo","localidade":"Passo Fundo, Rio Grande do Sul, Brasil","organizacao":"ARTISTAS CANHOTOS","categoria":"Acesso à Justiça e Combate às Desigualdades","municipio":"Passo Fundo","premiado":false,"uf":"RS"},"geometry":{"type":"Point","coordinates":[-52.396661,-28.25506]}},{"type":"Feature","properties":{"nome_acao":"ARTÍSTICO CILTURAL","nome_comunidade":"Brasília e RAs.","localidade":"Brasília, Distrito Federal, Brasil","organizacao":"***","categoria":"Cultura e Memória","municipio":"Taguatinga","premiado":false,"uf":"DF"},"geometry":{"type":"Point","coordinates":[-47.882317,-15.793404]}},{"type":"Feature","properties":{"nome_acao":"ASSENTAMENTO 20 DE NOVEMBRO","nome_comunidade":"Assentamento 20 de Novembro","localidade":"Rua Doutor Barros Cassal 161, Floresta, Porto Alegre - Rio Grande do Sul, 90035-030, Brasil","organizacao":"COOPERATIVA DE TRABALHO E HABITAÇÃO 20 DE NOVEMBRO","categoria":"Planejamento Urbano, Gestão de Riscos e Responsabilidade Climática","municipio":"Porto Alegre","premiado":false,"uf":"RS"},"geometry":{"type":"Point","coordinates":[-51.217477,-30.02743]}},{"type":"Feature","properties":{"nome_acao":"ASSISTENCIALISMO E PRÁTICAS AMBIENTAIS","nome_comunidade":"Pantanal","localidade":"Aracaju, Sergipe, Brasil","organizacao":"ASSOCIAÇÃO COMUNITÁRIA SOCIAL JARDIM ESPERANÇA","categoria":"Soberania Alimentar e Nutricional","municipio":"Aracaju","premiado":false,"uf":"SE"},"geometry":{"type":"Point","coordinates":[-37.077466,-10.916206]}},{"type":"Feature","properties":{"nome_acao":"ASSOCIAÇÃO AÇÃO  PERIFERICA","nome_comunidade":"Sociedade cultural e beneficente 28 de Setembro","localidade":"Rua Machado De Assis 112, Sorocaba - São Paulo, 18035270, Brasil","organizacao":"ASSOCIAÇÃO AÇÃO PERIFERICA","categoria":"Comunicação, Inclusão Digital e Educação Popular","municipio":"Sorocaba","premiado":false,"uf":"SP"},"geometry":{"type":"Point","coordinates":[-47.459394,-23.503757]}},{"type":"Feature","properties":{"nome_acao":"ASSOCIAÇÃO AÇÃO SOCIAL SÃO PEDRO","nome_comunidade":"***","localidade":"Rua Guissama 26, Petrópolis, Betim - Minas Gerais, 32000-000, Brazil","organizacao":"ASSOCIAÇÃO AÇÃO SOCIAL SÃO PEDRO","categoria":"Comunicação, Inclusão Digital e Educação Popular","municipio":"Betim","premiado":false,"uf":"MG"},"geometry":{"type":"Point","coordinates":[-44.176944,-19.968242]}},{"type":"Feature","properties":{"nome_acao":"ASSOCIAÇÃO ACARAJÓ","nome_comunidade":"***","localidade":"Bragança, Pará, Brazil","organizacao":"ASSOCIAÇÃO ACARAJÓ","categoria":"Planejamento Urbano, Gestão de Riscos e Responsabilidade Climática","municipio":"Bragança","premiado":false,"uf":"PA"},"geometry":{"type":"Point","coordinates":[-46.763523,-1.057425]}},{"type":"Feature","properties":{"nome_acao":"ASSOCIAÇÃO ARTÍSTICA E CULTURAL DA PERIFERIA, SEMANA DO ORGULHO PERIFÉRICO","nome_comunidade":"SINOPSE   ATIVIDADE SEMANA DO ORGULHO PERIFERICO A comunidade do Bairro Restinga  mobiliza-se entorno da  Semana do Orgulho Periférico Lei Municipal Nº 12.029 que acontece em agosto, o papel da Cultura na Periferia e suas potencialidades”  o encontro","localidade":"Rua Clara Nunes, Restinga, Porto Alegre - Rio Grande do Sul, 91790-270, Brasil","organizacao":"PONTO DE CULTURA AÇÃO PERIFÉRICA/ ASSOCIAÇÃO ARTÍSTICA E CULTURAL DA PERIFERIA","categoria":"Cultura e Memória","municipio":"Porto Alegre","premiado":false,"uf":"RS"},"geometry":{"type":"Point","coordinates":[-51.1486784,-30.156508]}},{"type":"Feature","properties":{"nome_acao":"ASSOCIAÇÃO BAILARTE CENTRO DE DANÇAS","nome_comunidade":"***","localidade":"Sabará, Minas Gerais, Brasil","organizacao":"ASSOCIAÇÃO BAILARTE CENTRO DE DANÇAS","categoria":"Soberania Alimentar e Nutricional","municipio":"Sabará","premiado":false,"uf":"MG"},"geometry":{"type":"Point","coordinates":[-43.810792,-19.890037]}},{"type":"Feature","properties":{"nome_acao":"ASSOCIAÇÃO CDD SKATE ARTE","nome_comunidade":"***","localidade":"Cidade de Deus, 22773, Rio de Janeiro, Rio de Janeiro, Brasil","organizacao":"ASSOCIAÇÃO CDD SKATE ARTE","categoria":"Acesso à Justiça e Combate às Desigualdades","municipio":"Rio de Janeiro","premiado":false,"uf":"RJ"},"geometry":{"type":"Point","coordinates":[-43.3629,-22.948]}},{"type":"Feature","properties":{"nome_acao":"ASSOCIAÇÃO CENTRO CULTURAL ELIZIÁRIO RANGEL","nome_comunidade":"***","localidade":"Rua Humberto De Campos, São Diogo I, Serra - Espírito Santo, 29160-000, Brasil","organizacao":"ASSOCIAÇÃO CENTRO CULTURAL ELIZIÁRIO RANGEL","categoria":"Cultura e Memória","municipio":"Serra","premiado":false,"uf":"ES"},"geometry":{"type":"Point","coordinates":[-40.2624932,-20.2194403]}},{"type":"Feature","properties":{"nome_acao":"ASSOCIAÇÃO CÍRCULO LARANJA","nome_comunidade":"Grande Méier","localidade":"Rua Álvares Cabral 505, Cachambi, Rio de Janeiro - Rio de Janeiro, 20780, Brasil","organizacao":"ASSOCIAÇÃO CÍRCULO LARANJA","categoria":"Acesso à Justiça e Combate às Desigualdades","municipio":"Rio de Janeiro","premiado":false,"uf":"RJ"},"geometry":{"type":"Point","coordinates":[-43.27078,-22.8926]}},{"type":"Feature","properties":{"nome_acao":"ASSOCIAÇÃO COLETIVA MULHERES DA QUEBRADA","nome_comunidade":"***","localidade":"Rua Ritmo 125, Santana Do Cafezal, Belo Horizonte - Minas Gerais, 30250-030, Brasil","organizacao":"ASSOCIAÇÃO COLETIVA MULHERES DA QUEBRADA","categoria":"Acesso à Justiça e Combate às Desigualdades","municipio":"Belo Horizonte","premiado":false,"uf":"MG"},"geometry":{"type":"Point","coordinates":[-43.90925,-19.935612]}},{"type":"Feature","properties":{"nome_acao":"ASSOCIACAO COLETIVO ABA TYBA","nome_comunidade":"***","localidade":"João Neiva, Espírito Santo, Brasil","organizacao":"ASSOCIACAO COLETIVO ABA TYBA","categoria":"Comunicação, Inclusão Digital e Educação Popular","municipio":"João Neiva","premiado":false,"uf":"ES"},"geometry":{"type":"Point","coordinates":[-40.384835,-19.756346]}},{"type":"Feature","properties":{"nome_acao":"ASSOCIAÇÃO COMUNIDADE CULTURAL QUILOMBAQUE","nome_comunidade":"***","localidade":"São Paulo, São Paulo, Brasil","organizacao":"ASSOCIAÇÃO COMUNIDADE CULTURAL QUILOMBAQUE","categoria":"Cultura e Memória","municipio":"São Paulo","premiado":false,"uf":"SP"},"geometry":{"type":"Point","coordinates":[-46.633382,-23.550651]}},{"type":"Feature","properties":{"nome_acao":"ASSOCIAÇÃO COMUNIDADE DAS ÁGUAS","nome_comunidade":"***","localidade":"Rua Quarenta E Nove, Zumbi Do Pacheco, Jaboatão dos Guararapes - Pernambuco, 54245, Brasil","organizacao":"ASSOCIAÇÃO COMUNIDADE DAS ÁGUAS","categoria":"Cultura e Memória","municipio":"Jaboatão dos Guararapes","premiado":false,"uf":"PE"},"geometry":{"type":"Point","coordinates":[-34.9657971,-8.1287238]}},{"type":"Feature","properties":{"nome_acao":"ASSOCIAÇÃO COMUNIDADE DAS ÁGUAS (COM ATIVIDADES: FEIRA DO TROCA; CINE RUA ESCURA; CULTURA DE FAVELA; MAPEANDO A ANCESTRALIDADE NA PERIFERIA; MUTIRÃO DE SAÚDE; TIC TAC...).","nome_comunidade":"Ibura","localidade":"Rua Quarenta E Nove, Zumbi Do Pacheco, Jaboatão dos Guararapes - Pernambuco, 54245, Brasil","organizacao":"ASSOCIAÇÃO COMUNIDADE DAS ÁGUAS","categoria":"Cultura e Memória","municipio":"Jaboatão dos Guararapes","premiado":false,"uf":"PE"},"geometry":{"type":"Point","coordinates":[-34.9657971,-8.1287238]}},{"type":"Feature","properties":{"nome_acao":"ASSOCIAÇÃO COMUNITÁRIA AGRÍCOLA DE MUÇUMAGRO - ACAM","nome_comunidade":"***","localidade":"Rua Das Cupiúbas, Mucumago, João Pessoa - Paraíba, Brasil","organizacao":"ASSOCIAÇÃO COMUNITÁRIA AGRÍCOLA DE MUÇUMAGRO - ACAM","categoria":"Comunicação, Inclusão Digital e Educação Popular","municipio":"João Pessoa","premiado":false,"uf":"PB"},"geometry":{"type":"Point","coordinates":[-34.8337423,-7.2153855]}},{"type":"Feature","properties":{"nome_acao":"ASSOCIAÇÃO COMUNITÁRIA DESPERTAR","nome_comunidade":"Cidade Ademar, Pedreira, Americanópolis","localidade":"Rua Antônio Bispo De Souza São Paulo - São Paulo, 04416, Brasil","organizacao":"***","categoria":"Acesso à Justiça e Combate às Desigualdades","municipio":"São Paulo","premiado":false,"uf":"SP"},"geometry":{"type":"Point","coordinates":[-46.6412384,-23.6754299]}},{"type":"Feature","properties":{"nome_acao":"ASSOCIAÇÃO COMUNITARIA DOS MORADORES DO PARQUE NAZARÉ","nome_comunidade":"***","localidade":"Rua Guarapari 1360, Siqueira, Fortaleza - Ceará, 60732-640, Brasil","organizacao":"ASSOCIAÇÃO COMUNITARIA DOS MORADORES DO PARQUE NAZARÉ","categoria":"Soberania Alimentar e Nutricional","municipio":"Fortaleza","premiado":false,"uf":"CE"},"geometry":{"type":"Point","coordinates":[-38.619853,-3.817673]}},{"type":"Feature","properties":{"nome_acao":"ASSOCIAÇÃO COMUNITARIA SOCIOCULTURAL DA PICADA","nome_comunidade":"***","localidade":"Comunidade Picada Ipanguaçu - Rio Grande do Norte, 59508-000, Brasil","organizacao":"ASSOCIAÇÃO COMUNITARIA SOCIOCULTURAL DA PICADA","categoria":"Soberania Alimentar e Nutricional","municipio":"Ipanguaçu","premiado":false,"uf":"RN"},"geometry":{"type":"Point","coordinates":[-36.799315,-5.526425]}},{"type":"Feature","properties":{"nome_acao":"ASSOCIAÇÃO COMUNITÁRIA SOCIOCULTURAL DA PICADA","nome_comunidade":"Picadas","localidade":"Comunidade Picada Ipanguaçu - Rio Grande do Norte, Brasil","organizacao":"ASSOCIAÇÃO COMUNITÁRIA SOCIOCULTURAL DA PICADA","categoria":"Soberania Alimentar e Nutricional","municipio":"Ipanguaçu","premiado":false,"uf":"RN"},"geometry":{"type":"Point","coordinates":[-36.799315,-5.526425]}},{"type":"Feature","properties":{"nome_acao":"ASSOCIAÇÃO CULTURAL ACERVO DA LAJE","nome_comunidade":"***","localidade":"Rua Nova Esperança De Plataforma Salvador - Bahia, 40490-234, Brasil","organizacao":"ASSOCIAÇÃO CULTURAL ACERVO DA LAJE","categoria":"Cultura e Memória","municipio":"Salvador","premiado":false,"uf":"BA"},"geometry":{"type":"Point","coordinates":[-38.4796051,-12.8980197]}},{"type":"Feature","properties":{"nome_acao":"ASSOCIAÇÃO CULTURAL AFOXÉ OMÕRISÁ ODÈ","nome_comunidade":"Granja Lisboa","localidade":"Rua Geraldo Barbosa, Granja Lisboa, Fortaleza - Ceará, 60543-335, Brasil","organizacao":"ASSOCIAÇÃO CULTURAL AFOXÉ OMÕRISÁ ODÈ","categoria":"Cultura e Memória","municipio":"Fortaleza","premiado":false,"uf":"CE"},"geometry":{"type":"Point","coordinates":[-38.6093137,-3.7894935]}},{"type":"Feature","properties":{"nome_acao":"ASSOCIAÇÃO CULTURAL AFRO KETU","nome_comunidade":"***","localidade":"Morrinhos, 11449, Vicente De Carvalho, Guarujá, São Paulo, Brasil","organizacao":"ASSOCIAÇÃO CULTURAL AFRO KETU","categoria":"Cultura e Memória","municipio":"Guarujá","premiado":false,"uf":"SP"},"geometry":{"type":"Point","coordinates":[-46.2524,-23.9621]}},{"type":"Feature","properties":{"nome_acao":"ASSOCIAÇÃO CULTURAL BENEFICENTE JUNINA PINDAREENSE","nome_comunidade":"***","localidade":"Rua Quarenta E Oito São Luís - Maranhão, 65000-000, Brasil","organizacao":"ASSOCIAÇÃO CULTURAL BENEFICENTE JUNINA PINDAREENSE","categoria":"Cultura e Memória","municipio":"São Luís","premiado":false,"uf":"MA"},"geometry":{"type":"Point","coordinates":[-44.2882115,-2.5462283]}},{"type":"Feature","properties":{"nome_acao":"ASSOCIAÇÃO CULTURAL CONEXÃO DAS ARTES","nome_comunidade":"***","localidade":"Rua Sargento Rêgo 126, Anchieta, Rio de Janeiro - Rio de Janeiro, 21640, Brasil","organizacao":"ASSOCIAÇÃO CULTURAL CONEXÃO DAS ARTES","categoria":"Cultura e Memória","municipio":"Rio de Janeiro","premiado":false,"uf":"RJ"},"geometry":{"type":"Point","coordinates":[-43.394921,-22.830349]}},{"type":"Feature","properties":{"nome_acao":"ASSOCIAÇÃO CULTURAL DESPORTIVA GINGA ANCESTRAL SALVAGUARDA COMUNITÁRIA DA CAPOEIRA","nome_comunidade":"***","localidade":"Livramento de Nossa Senhora, Bahia, Brasil","organizacao":"ASSOCIAÇÃO CULTURAL DESPORTIVA GINGA ANCESTRAL SALVAGUARDA COMUNITÁRIA DA CAPOEIRA","categoria":"Cultura e Memória","municipio":"Livramento de Nossa Senhora","premiado":false,"uf":"BA"},"geometry":{"type":"Point","coordinates":[-41.84121,-13.650547]}},{"type":"Feature","properties":{"nome_acao":"ASSOCIAÇÃO CULTURAL E AGRICOLA DOS JOVENS AMBIENTALISTAS DA PARAIBA","nome_comunidade":"***","localidade":"Alagoa Nova, Paraíba, Brasil","organizacao":"ASSOCIAÇÃO CULTURAL E AGRICOLA DOS JOVENS AMBIENTALISTAS DA PARAIBA","categoria":"Cultura e Memória","municipio":"Alagoa Nova","premiado":false,"uf":"PB"},"geometry":{"type":"Point","coordinates":[-35.761457,-7.060114]}},{"type":"Feature","properties":{"nome_acao":"ASSOCIAÇÃO CULTURAL E CARNAVALESCA AFOXÉ OMO IZO","nome_comunidade":"***","localidade":"Salvador, Bahia, Brasil","organizacao":"ASSOCIAÇÃO CULTURAL E CARNAVALESCA AFOXÉ OMO IZO","categoria":"Soberania Alimentar e Nutricional","municipio":"Salvador","premiado":false,"uf":"BA"},"geometry":{"type":"Point","coordinates":[-38.481277,-12.98225]}},{"type":"Feature","properties":{"nome_acao":"ASSOCIAÇÃO CULTURAL E ESPORTIVA","nome_comunidade":"***","localidade":"Rua Sergipe 179, Da Viga, Nova Iguaçu - Rio de Janeiro, 26013-650, Brasil","organizacao":"ASSOCIAÇÃO CULTURAL E ESPORTIVA","categoria":"Cultura e Memória","municipio":"Nova Iguaçu","premiado":false,"uf":"RJ"},"geometry":{"type":"Point","coordinates":[-43.4401,-22.739631]}},{"type":"Feature","properties":{"nome_acao":"ASSOCIAÇÃO CULTURAL E TEATRAL QUADRILHA MANDACARU","nome_comunidade":"***","localidade":"Aparecida de Goiânia, Goiás, Brasil","organizacao":"ASSOCIAÇÃO CULTURAL E TEATRAL QUADRILHA MANDACARU","categoria":"Cultura e Memória","municipio":"Aparecida de Goiânia","premiado":false,"uf":"GO"},"geometry":{"type":"Point","coordinates":[-49.245255,-16.822677]}},{"type":"Feature","properties":{"nome_acao":"ASSOCIACAO CULTURAL ESPORTIVA CAFESOPOLIS","nome_comunidade":"Cafesopolis","localidade":"Rua Cafesópolis, Imbiribeira, Recife - Pernambuco, 51150, Brasil","organizacao":"***","categoria":"Soberania Alimentar e Nutricional","municipio":"Recife","premiado":false,"uf":"PE"},"geometry":{"type":"Point","coordinates":[-34.9090074,-8.0988338]}},{"type":"Feature","properties":{"nome_acao":"ASSOCIAÇÃO CULTURAL NAÇÃO MULAMBO","nome_comunidade":"***","localidade":"Peixinhos, 53220, Olinda, Pernambuco, Brasil","organizacao":"ASSOCIAÇÃO CULTURAL NAÇÃO MULAMBO","categoria":"Cultura e Memória","municipio":"Olinda","premiado":false,"uf":"PE"},"geometry":{"type":"Point","coordinates":[-34.8721,-8.0138]}},{"type":"Feature","properties":{"nome_acao":"ASSOCIACAO CULTURAL QUILOMBO ALDEIA TUBARAO - QUIAL TUBARAO","nome_comunidade":"***","localidade":"Rua Da Mangueira Salvador - Bahia, 40800, Brasil","organizacao":"ASSOCIACAO CULTURAL QUILOMBO ALDEIA TUBARAO - QUIAL TUBARAO","categoria":"Cultura e Memória","municipio":"Salvador","premiado":false,"uf":"BA"},"geometry":{"type":"Point","coordinates":[-38.4761569,-12.8338131]}},{"type":"Feature","properties":{"nome_acao":"ASSOCIAÇÃO CULTURAL SAWABONA SHIKOBA","nome_comunidade":"***","localidade":"Porto Alegre, Rio Grande do Sul, Brasil","organizacao":"ASSOCIAÇÃO CULTURAL SAWABONA SHIKOBA","categoria":"Acesso à Justiça e Combate às Desigualdades","municipio":"Porto Alegre","premiado":false,"uf":"RS"},"geometry":{"type":"Point","coordinates":[-51.230377,-30.0325]}},{"type":"Feature","properties":{"nome_acao":"ASSOCIAÇÃO CULTURAL SUPERNOVA","nome_comunidade":"***","localidade":"Brasília, Distrito Federal, Brasil","organizacao":"ASSOCIAÇÃO CULTURAL SUPERNOVA","categoria":"Cultura e Memória","municipio":"Brasília","premiado":false,"uf":"DF"},"geometry":{"type":"Point","coordinates":[-47.882317,-15.793404]}},{"type":"Feature","properties":{"nome_acao":"ASSOCIAÇÃO CULTURAL TODOS PODEM","nome_comunidade":"Valparaíso, km 14, Ibituba, Bananal","localidade":"Baixo Guandu, Espírito Santo, Brasil","organizacao":"ASSOCIAÇÃO CULTURAL TODOS PODEM","categoria":"Economia Solidária","municipio":"Baixo Guandu","premiado":false,"uf":"ES"},"geometry":{"type":"Point","coordinates":[-41.018209,-19.513832]}},{"type":"Feature","properties":{"nome_acao":"ASSOCIAÇÃO DAS MICRO E PEQUENAS EMPRESAS DE CENTRAL CARAPINA","nome_comunidade":"***","localidade":"Rua Apiacá n1, Central Carapina, Serra - Espírito Santo, 29160-000, Brasil","organizacao":"ASSOCIAÇÃO DAS MICRO E PEQUENAS EMPRESAS DE CENTRAL CARAPINA","categoria":"Economia Solidária","municipio":"Serra","premiado":false,"uf":"ES"},"geometry":{"type":"Point","coordinates":[-40.273993,-20.217907]}},{"type":"Feature","properties":{"nome_acao":"ASSOCIAÇÃO DAS PROSTITUTAS DO PIAUI","nome_comunidade":"***","localidade":"Piauí, Brasil","organizacao":"ASSOCIAÇÃO DAS PROSTITUTAS DO PIAUI","categoria":"Economia Solidária","municipio":"Itaueira","premiado":false,"uf":"PI"},"geometry":{"type":"Point","coordinates":[-42.987940410332,-7.41071311117147]}},{"type":"Feature","properties":{"nome_acao":"ASSOCIAÇÃO DE AGRICULTORES PESCADORES E PESCADORAS OLHA DA UNIÃO","nome_comunidade":"***","localidade":"Barão de Melgaço, Mato Grosso, Brasil","organizacao":"ASSOCIAÇÃO DE AGRICULTORES PESCADORES E PESCADORAS OLHA DA UNIÃO","categoria":"Cultura e Memória","municipio":"Barão de Melgaço","premiado":false,"uf":"MT"},"geometry":{"type":"Point","coordinates":[-55.966805,-16.195776]}},{"type":"Feature","properties":{"nome_acao":"ASSOCIAÇÃO DE ASSISTÊNCIA IRMÃ ROSA","nome_comunidade":"***","localidade":"Rua Caruru 214, Morumbi, Uberlândia - Minas Gerais, Brasil","organizacao":"ASSOCIAÇÃO DE ASSISTÊNCIA IRMÃ ROSA","categoria":"Soberania Alimentar e Nutricional","municipio":"Uberlândia","premiado":false,"uf":"MG"},"geometry":{"type":"Point","coordinates":[-48.184303,-18.915631]}},{"type":"Feature","properties":{"nome_acao":"ASSOCIAÇÃO DE BAIRRO FÊNNIX ITATIAIA AO RESPLANDECER DO JD. ITATIAIA","nome_comunidade":"***","localidade":"Rua Serra Do Pilar Campinas - São Paulo, 13100, Brasil","organizacao":"ASSOCIAÇÃO DE BAIRRO FÊNNIX ITATIAIA AO RESPLANDECER DO JD. ITATIAIA","categoria":"Acesso à Justiça e Combate às Desigualdades","municipio":"Campinas","premiado":false,"uf":"SP"},"geometry":{"type":"Point","coordinates":[-47.0241179,-22.9209208]}},{"type":"Feature","properties":{"nome_acao":"ASSOCIAÇÃO DE CAPOEIRA FILHOS DO KIKONGO","nome_comunidade":"Ipíiba. Favela beira rio,favela da linha r.ouro","localidade":"Avenida Randolfo Medeiros Dos Santos, Ipiíba, São Gonçalo - Rio de Janeiro, 24752-180, Brasil","organizacao":"FILHOS DO KIKONGO","categoria":"Cultura e Memória","municipio":"São Gonçalo","premiado":false,"uf":"RJ"},"geometry":{"type":"Point","coordinates":[-42.9800225,-22.8755831]}},{"type":"Feature","properties":{"nome_acao":"ASSOCIAÇÃO DE CAPOEIRA IDENTIDADE CULTURAL","nome_comunidade":"***","localidade":"Além Paraíba, Minas Gerais, Brasil","organizacao":"ASSOCIAÇÃO DE CAPOEIRA IDENTIDADE CULTURAL","categoria":"Cultura e Memória","municipio":"Além Paraíba","premiado":false,"uf":"MG"},"geometry":{"type":"Point","coordinates":[-42.681047,-21.876058]}},{"type":"Feature","properties":{"nome_acao":"ASSOCIAÇÃO DE CAPOEIRA IDENTIDADE CULTURAL (PONTO DE CULTURA)","nome_comunidade":"Vila Caxias (complexo de bairros)","localidade":"Além Paraíba, Minas Gerais, Brasil","organizacao":"ASSOCIAÇÃO DE CAPOEIRA IDENTIDADE CULTURAL (PONTO DE CULTURA)","categoria":"Cultura e Memória","municipio":"Além Paraíba","premiado":false,"uf":"MG"},"geometry":{"type":"Point","coordinates":[-42.681047,-21.876058]}},{"type":"Feature","properties":{"nome_acao":"ASSOCIAÇÃO DE CUIDADORAS E CUIDADORES DE PESSOAS DE PESSOAS DE TODOS OS SEGUIMENTOS DE PE","nome_comunidade":"***","localidade":"Pernambuco, Brasil","organizacao":"ASSOCIAÇÃO DE CUIDADORAS E CUIDADORES DE PESSOAS DE PESSOAS DE TODOS OS SEGUIMENTOS DE PE","categoria":"Acesso à Justiça e Combate às Desigualdades","municipio":"Floresta","premiado":false,"uf":"PE"},"geometry":{"type":"Point","coordinates":[-38.1601664481438,-8.42617748709789]}},{"type":"Feature","properties":{"nome_acao":"ASSOCIAÇÃO DE ECONOMIA SOLIDÁRIA, EDUCAÇÃO E CULTURA DA CASCATA","nome_comunidade":"***","localidade":"Rua 22 De Julho, Cascata, Porto Alegre - Rio Grande do Sul, 91712-804, Brasil","organizacao":"ASSOCIAÇÃO DE ECONOMIA SOLIDÁRIA, EDUCAÇÃO E CULTURA DA CASCATA","categoria":"Economia Solidária","municipio":"Porto Alegre","premiado":false,"uf":"RS"},"geometry":{"type":"Point","coordinates":[-51.1771728,-30.0925446]}},{"type":"Feature","properties":{"nome_acao":"ASSOCIAÇÃO DE EDUCAÇÃO E CULTURA FLOR DO CASCALHO","nome_comunidade":"***","localidade":"Rua Marco Antônio 250, São Jorge 2ª Seção, Belo Horizonte - Minas Gerais, 30451-009, Brasil","organizacao":"ASSOCIAÇÃO DE EDUCAÇÃO E CULTURA FLOR DO CASCALHO","categoria":"Cultura e Memória","municipio":"Belo Horizonte","premiado":false,"uf":"MG"},"geometry":{"type":"Point","coordinates":[-43.959319,-19.942528]}},{"type":"Feature","properties":{"nome_acao":"ASSOCIAÇÃO DE MORADORES DA VÁRZEA","nome_comunidade":"Várzea","localidade":"Várzea, Recife, Pernambuco 50740, Brasil","organizacao":"ASSOCIAÇÃO DE MORADORES DA VÁRZEA","categoria":"Comunicação, Inclusão Digital e Educação Popular","municipio":"Recife","premiado":false,"uf":"PE"},"geometry":{"type":"Point","coordinates":[-34.953776,-8.039155]}},{"type":"Feature","properties":{"nome_acao":"ASSOCIAÇÃO DE MORADORES DO ALTO ANTÔNIO FELIX, NÚCLEO DE MEDIAÇÃO COMUNITÁRIO DE CONFLITOS DE NOVA DESCOBERTA","nome_comunidade":"Associação de moradores do alto Antônio Felix","localidade":"Recife, Pernambuco, Brasil","organizacao":"G10 FAVELA","categoria":"Planejamento Urbano, Gestão de Riscos e Responsabilidade Climática","municipio":"Recife","premiado":false,"uf":"PE"},"geometry":{"type":"Point","coordinates":[-34.884819,-8.058493]}},{"type":"Feature","properties":{"nome_acao":"ASSOCIAÇÃO DE MORADORES DO ALUGUEL SOCIAL","nome_comunidade":"Complexo de Barros filhos","localidade":"Barros Filho, 21515, Rio de Janeiro, Rio de Janeiro, Brasil","organizacao":"ASSOCIAÇÃO DE MORADORES DO ALUGUEL SOCIAL.","categoria":"Planejamento Urbano, Gestão de Riscos e Responsabilidade Climática","municipio":"Rio de Janeiro","premiado":false,"uf":"RJ"},"geometry":{"type":"Point","coordinates":[-43.3632,-22.8349]}},{"type":"Feature","properties":{"nome_acao":"ASSOCIAÇÃO DE MORADORES DO COMPLEXO DO BAIRRO UNIÃO","nome_comunidade":"***","localidade":"Coelho Neto, 21510, Rio de Janeiro, Rio de Janeiro, Brasil","organizacao":"ASSOCIAÇÃO DE MORADORES DO COMPLEXO DO BAIRRO UNIÃO","categoria":"Comunicação, Inclusão Digital e Educação Popular","municipio":"Rio de Janeiro","premiado":false,"uf":"RJ"},"geometry":{"type":"Point","coordinates":[-43.3502,-22.8322]}},{"type":"Feature","properties":{"nome_acao":"ASSOCIAÇÃO DE MORADORES DO PARQUE SÃO JORGE","nome_comunidade":"Parque São Jorge","localidade":"Cuiabá, Mato Grosso, Brasil","organizacao":"ASSOCIAÇÃO DE MORADORES DO PARQUE SÃO JORGE","categoria":"Planejamento Urbano, Gestão de Riscos e Responsabilidade Climática","municipio":"Cuiabá","premiado":false,"uf":"MT"},"geometry":{"type":"Point","coordinates":[-56.09913,-15.598669]}},{"type":"Feature","properties":{"nome_acao":"ASSOCIAÇÃO DE MORADORES E PESCADORES DE ODILANDIA E MAMUABA","nome_comunidade":"Odilandia","localidade":"Rua Professor Luiz Porto Santa Rita - Paraíba, Brasil","organizacao":"ASSOCIAÇAO DE MORADORES E PESCADORTES DE ODILANDIA E MAMUABA","categoria":"Economia Solidária","municipio":"Santa Rita","premiado":false,"uf":"PB"},"geometry":{"type":"Point","coordinates":[-34.9808395,-7.1227965]}},{"type":"Feature","properties":{"nome_acao":"ASSOCIAÇÃO DE MULHERES MARIA DA GLÓRIA","nome_comunidade":"Morro da Cruz, Vila São José","localidade":"São José, 91520, Porto Alegre, Rio Grande do Sul, Brasil","organizacao":"ASSOCIAÇÃO DE MULHERES MARIA DA GLÓRIA","categoria":"Soberania Alimentar e Nutricional","municipio":"Porto Alegre","premiado":false,"uf":"RS"},"geometry":{"type":"Point","coordinates":[-51.1664,-30.0672]}},{"type":"Feature","properties":{"nome_acao":"ASSOCIAÇÃO DE MULHERES TOMEAÇUENSE-AMT (PROMOÇÃO DE POLITICAS PUBLICAS PARA MULHERES EM VULNERABILIDADE SOCIAL.","nome_comunidade":"Desenvolvemos em Bairros da Zona Urbana e do Campo","localidade":"Tomé-Açu, Pará, Brasil","organizacao":"ASSOCIAÇÃO DE MULHERES TOMÉAÇUENSE-AMT","categoria":"Acesso à Justiça e Combate às Desigualdades","municipio":"Tomé-Açu","premiado":false,"uf":"PA"},"geometry":{"type":"Point","coordinates":[-48.152291,-2.416631]}},{"type":"Feature","properties":{"nome_acao":"ASSOCIAÇÃO DE TURISMO DE BASE COMUNITÁRIA - COLETIVO TEKOÁ","nome_comunidade":"***","localidade":"José Mendes, 88021, Florianópolis, Santa Catarina, Brasil","organizacao":"ASSOCIAÇÃO DE TURISMO DE BASE COMUNITÁRIA - COLETIVO TEKOÁ","categoria":"Cultura e Memória","municipio":"Florianópolis","premiado":false,"uf":"SC"},"geometry":{"type":"Point","coordinates":[-48.5463,-27.6123]}},{"type":"Feature","properties":{"nome_acao":"ASSOCIAÇÃO DEFENSORA DA ILHA DE JOANEIRO","nome_comunidade":"***","localidade":"Campo Grande, 52040, Recife, Pernambuco, Brasil","organizacao":"ASSOCIAÇÃO DEFENSORA DA ILHA DE JOANEIRO","categoria":"Acesso à Justiça e Combate às Desigualdades","municipio":"Recife","premiado":false,"uf":"PE"},"geometry":{"type":"Point","coordinates":[-34.8794,-8.0316]}},{"type":"Feature","properties":{"nome_acao":"ASSOCIAÇÃO DESPERTAR SABEDORIA NO SOL NASCENTE","nome_comunidade":"Sol Nascente","localidade":"Distrito Federal, Brasil","organizacao":"ASSOCIAÇÃO DESPERTAR SABEDORIA NO SOL NASCENTE","categoria":"Comunicação, Inclusão Digital e Educação Popular","municipio":"Ceilândia","premiado":false,"uf":"DF"},"geometry":{"type":"Point","coordinates":[-47.790561198,-15.6845683816]}},{"type":"Feature","properties":{"nome_acao":"ASSOCIAÇÃO DESPORTIVA E CULTURAL BELA ARTE CAPOEIRA","nome_comunidade":"***","localidade":"Cajueiro Seco, Jaboatão dos Guararapes, Pernambuco, Brasil","organizacao":"ASSOCIAÇÃO DESPORTIVA E CULTURAL BELA ARTE CAPOEIRA","categoria":"Cultura e Memória","municipio":"Jaboatão dos Guararapes","premiado":false,"uf":"PE"},"geometry":{"type":"Point","coordinates":[-34.92,-8.17]}},{"type":"Feature","properties":{"nome_acao":"ASSOCIAÇÃO DISTRITAL DE SKATE","nome_comunidade":"Ceilândia","localidade":"Qnm 14 Brasília - Distrito Federal, 72210, Brasil","organizacao":"ASSOCIAÇÃO DISTRITAL DE SKATE","categoria":"Cultura e Memória","municipio":"Ceilândia","premiado":false,"uf":"DF"},"geometry":{"type":"Point","coordinates":[-48.107366,-15.8121712]}},{"type":"Feature","properties":{"nome_acao":"ASSOCIAÇÃO DO SOPÃO SOCIAL DIVINA PROVIDÊNCIA","nome_comunidade":"***","localidade":"Quixadá, Ceará, Brasil","organizacao":"ASSOCIAÇÃO DO SOPÃO SOCIAL DIVINA PROVIDÊNCIA","categoria":"Soberania Alimentar e Nutricional","municipio":"Quixadá","premiado":false,"uf":"CE"},"geometry":{"type":"Point","coordinates":[-39.01584,-4.970602]}},{"type":"Feature","properties":{"nome_acao":"ASSOCIAÇÃO DOS AGRICULTORES, PROCESSADORES DE ALIMENTOS E ARTESÃOS DA FEIRA DA AGRICULTURA FAMILIAR NA UNIVERSIDADE FEDERAL RURAL DO RIO DE JANEIRO (AFAF)","nome_comunidade":"***","localidade":"Seropédica, Rio de Janeiro, Brasil","organizacao":"ASSOCIAÇÃO DOS AGRICULTORES, PROCESSADORES DE ALIMENTOS E ARTESÃOS DA FEIRA DA AGRICULTURA FAMILIAR NA UNIVERSIDADE FEDERAL RURAL DO RIO DE JANEIRO (AFAF)","categoria":"Economia Solidária","municipio":"Seropédica","premiado":false,"uf":"RJ"},"geometry":{"type":"Point","coordinates":[-43.6992,-22.743889]}},{"type":"Feature","properties":{"nome_acao":"ASSOCIAÇÃO DOS AMIGOS DA VILA DO PAPELÃO","nome_comunidade":"***","localidade":"Ilha Joana Bezerra, 50080, Recife, Pernambuco, Brasil","organizacao":"ASSOCIAÇÃO DOS AMIGOS DA VILA DO PAPELÃO","categoria":"Acesso à Justiça e Combate às Desigualdades","municipio":"Recife","premiado":false,"uf":"PE"},"geometry":{"type":"Point","coordinates":[-34.9,-8.07]}},{"type":"Feature","properties":{"nome_acao":"ASSOCIAÇÃO DOS AMIGOS NO COMBATE A EXCLUSÃO SOCIAL","nome_comunidade":"***","localidade":"Fortaleza, Ceará, Brasil","organizacao":"ASSOCIAÇÃO DOS AMIGOS NO COMBATE A EXCLUSÃO SOCIAL","categoria":"Soberania Alimentar e Nutricional","municipio":"Fortaleza","premiado":false,"uf":"CE"},"geometry":{"type":"Point","coordinates":[-38.521799,-3.730451]}},{"type":"Feature","properties":{"nome_acao":"ASSOCIAÇÃO DOS ARTESÃO EXTRATIVISMO POVOADO MUMBUCA","nome_comunidade":"***","localidade":"Mateiros, Tocantins, Brasil","organizacao":"ASSOCIAÇÃO DOS ARTESÃO EXTRATIVISMO POVOADO MUMBUCA","categoria":"Cultura e Memória","municipio":"Mateiros","premiado":false,"uf":"TO"},"geometry":{"type":"Point","coordinates":[-46.417423,-10.546225]}},{"type":"Feature","properties":{"nome_acao":"ASSOCIAÇÃO DOS MORADORES DO ALTO DA COLINA","nome_comunidade":"***","localidade":"Rua Martins Ferreira Conceição do Coité - Bahia, 48730-000, Brasil","organizacao":"ASSOCIAÇÃO DOS MORADORES DO ALTO DA COLINA","categoria":"Cultura e Memória","municipio":"Conceição do Coité","premiado":true,"uf":"BA"},"geometry":{"type":"Point","coordinates":[-39.2944563,-11.5621457]}},{"type":"Feature","properties":{"nome_acao":"ASSOCIAÇÃO DOS MORADORES DO CURIÓ","nome_comunidade":"Curió sapiranga","localidade":"Fortaleza, Ceará, Brasil","organizacao":"ASSOCIAÇÃO DOS MORADORES DO CURIÓ","categoria":"Cultura e Memória","municipio":"Fortaleza","premiado":false,"uf":"CE"},"geometry":{"type":"Point","coordinates":[-38.521799,-3.730451]}},{"type":"Feature","properties":{"nome_acao":"ASSOCIAÇÃO DOS MORADORES PRÓXIMOS À FERROVIA SANTA MARIA E REGIÃO","nome_comunidade":"***","localidade":"Rua Silva Jardim 09, Passo d'Areia, Santa Maria - Rio Grande do Sul, 97010-490, Brasil","organizacao":"ASSOCIAÇÃO DOS MORADORES PRÓXIMOS À FERROVIA SANTA MARIA E REGIÃO","categoria":"Acesso à Justiça e Combate às Desigualdades","municipio":"Santa Maria","premiado":false,"uf":"RS"},"geometry":{"type":"Point","coordinates":[-53.825374,-29.686822]}},{"type":"Feature","properties":{"nome_acao":"ASSOCIAÇÃO EMPREENDEDORAS RESTINGA","nome_comunidade":"RESTINGA","localidade":"Estrada Barro Vermelho, Restinga, Porto Alegre - Rio Grande do Sul, 91790-100, Brasil","organizacao":"ASSOCIAÇÃO EMPREENDEDORAS RESTINGA","categoria":"Economia Solidária","municipio":"Porto Alegre","premiado":false,"uf":"RS"},"geometry":{"type":"Point","coordinates":[-51.1408437,-30.1637667]}},{"type":"Feature","properties":{"nome_acao":"ASSOCIAÇÃO ESPORTIVA E CULTURAL 100ZALA","nome_comunidade":"São Miguel Paulista","localidade":"Rua Clarice Bueno De Miranda São Paulo - São Paulo, 08042-100, Brasil","organizacao":"ASSOCIAÇÃO ESPORTIVA E CULTURAL 100ZALA E COLETIVO AFROCRIATIVAS","categoria":"Cultura e Memória","municipio":"São Paulo","premiado":false,"uf":"SP"},"geometry":{"type":"Point","coordinates":[-46.437609,-23.5096977]}},{"type":"Feature","properties":{"nome_acao":"ASSOCIAÇÃO GRIS ESPAÇO SOLIDARIO","nome_comunidade":"Vila Arraes","localidade":"Rua Diogo Barbosa Machado, Várzea, Recife - Pernambuco, 50810, Brasil","organizacao":"ASSOCIAÇÃO GRIS ESPAÇO SOLIDÁRIO","categoria":"Acesso à Justiça e Combate às Desigualdades","municipio":"Recife","premiado":false,"uf":"PE"},"geometry":{"type":"Point","coordinates":[-34.9599824,-8.0425735]}},{"type":"Feature","properties":{"nome_acao":"ASSOCIAÇÃO GUARAÚNA DE ARTE E CULTURA","nome_comunidade":"***","localidade":"Grajaú, São Paulo, São Paulo, Brasil","organizacao":"ASSOCIAÇÃO GUARAÚNA DE ARTE E CULTURA","categoria":"Cultura e Memória","municipio":"São Paulo","premiado":false,"uf":"SP"},"geometry":{"type":"Point","coordinates":[-46.6724,-23.7821]}},{"type":"Feature","properties":{"nome_acao":"ASSOCIAÇÃO IMARGEM","nome_comunidade":"***","localidade":"Rua Nove De Setembro São Paulo - São Paulo, 04849, Brasil","organizacao":"ASSOCIAÇÃO IMARGEM","categoria":"Cultura e Memória","municipio":"São Paulo","premiado":false,"uf":"SP"},"geometry":{"type":"Point","coordinates":[-46.6613173,-23.7339054]}},{"type":"Feature","properties":{"nome_acao":"ASSOCIAÇÃO LIVRE - CENTRO DE FORMAÇÃO E TRANSFORMAÇÃO SOCIAL (TRANSFORMAR)------","nome_comunidade":"***","localidade":"Morro do São João, Rio de Janeiro, Rio de Janeiro 20950, Brasil","organizacao":"ASSOCIAÇÃO LIVRE - CENTRO DE FORMAÇÃO E TRANSFORMAÇÃO SOCIAL (TRANSFORMAR)------","categoria":"Cultura e Memória","municipio":"Rio de Janeiro","premiado":false,"uf":"RJ"},"geometry":{"type":"Point","coordinates":[-43.266947,-22.908702]}},{"type":"Feature","properties":{"nome_acao":"ASSOCIAÇÃO MOVIMENTO MAIS AMOR","nome_comunidade":"***","localidade":"Teresina, Piauí, Brasil","organizacao":"ASSOCIAÇÃO MOVIMENTO MAIS AMOR","categoria":"Soberania Alimentar e Nutricional","municipio":"Teresina","premiado":false,"uf":"PI"},"geometry":{"type":"Point","coordinates":[-42.809588,-5.08964]}},{"type":"Feature","properties":{"nome_acao":"ASSOCIAÇÃO NOSSA CASA MÃE ÁFRICA ESTUDOS E COMUNICAÇÃO","nome_comunidade":"Granja Lisboa","localidade":"Rua Medelim, Granja Lisboa, Fortaleza - Ceará, 60540-000, Brasil","organizacao":"ASSOCIAÇÃO NOSSA CASA MÃE ÁFRICA ESTUDOS E COMUNICAÇÃO","categoria":"Planejamento Urbano, Gestão de Riscos e Responsabilidade Climática","municipio":"Fortaleza","premiado":false,"uf":"CE"},"geometry":{"type":"Point","coordinates":[-38.6297930662,-3.7915581]}},{"type":"Feature","properties":{"nome_acao":"ASSOCIAÇÃO PERNAMBUCANA DAS MÃES SOLTEIRAS - APEMAS","nome_comunidade":"***","localidade":"Recife, Pernambuco, 52280, Brasil","organizacao":"ASSOCIAÇÃO PERNAMBUCANA DAS MÃES SOLTEIRAS - APEMAS","categoria":"Acesso à Justiça e Combate às Desigualdades","municipio":"Recife","premiado":false,"uf":"PE"},"geometry":{"type":"Point","coordinates":[-34.919054,-8.011774]}},{"type":"Feature","properties":{"nome_acao":"ASSOCIAÇÃO PIPA","nome_comunidade":"***","localidade":"Rua Taquaracu De Minas São Paulo - São Paulo, 02677-000, Brasil","organizacao":"ASSOCIAÇÃO PIPA","categoria":"Comunicação, Inclusão Digital e Educação Popular","municipio":"São Paulo","premiado":false,"uf":"SP"},"geometry":{"type":"Point","coordinates":[-46.6647032,-23.4541583]}},{"type":"Feature","properties":{"nome_acao":"ASSOCIAÇÃO PROJETO CASA ABERTA","nome_comunidade":"***","localidade":"Avenida Carmelita Drummond Diniz 375, Contagem - Minas Gerais, 32042-430, Brasil","organizacao":"ASSOCIAÇÃO PROJETO CASA ABERTA","categoria":"Cultura e Memória","municipio":"Contagem","premiado":false,"uf":"MG"},"geometry":{"type":"Point","coordinates":[-44.074239,-19.902483]}},{"type":"Feature","properties":{"nome_acao":"ASSOCIAÇÃO QUILOMBOLA TANQUE NOVO DO BAFAVA","nome_comunidade":"***","localidade":"Irecê, Bahia, Brasil","organizacao":"ASSOCIAÇÃO QUILOMBOLA TANQUE NOVO DO BAFAVA","categoria":"Acesso à Justiça e Combate às Desigualdades","municipio":"Irecê","premiado":false,"uf":"BA"},"geometry":{"type":"Point","coordinates":[-41.855793,-11.303496]}},{"type":"Feature","properties":{"nome_acao":"ASSOCIAÇÃO REAGE MULHER","nome_comunidade":"***","localidade":"Fortaleza, Ceará, Brasil","organizacao":"ASSOCIAÇÃO REAGE MULHER","categoria":"Economia Solidária","municipio":"Fortaleza","premiado":false,"uf":"CE"},"geometry":{"type":"Point","coordinates":[-38.521799,-3.730451]}},{"type":"Feature","properties":{"nome_acao":"ASSOCIAÇÃO REVOLUÇÃO DOS BALDINHOS","nome_comunidade":"***","localidade":"Servidão Pinheiros Chico Mendes 165, Monte Cristo, Florianópolis - Santa Catarina, Brasil","organizacao":"ASSOCIAÇÃO REVOLUÇÃO DOS BALDINHOS","categoria":"Planejamento Urbano, Gestão de Riscos e Responsabilidade Climática","municipio":"Florianópolis","premiado":false,"uf":"SC"},"geometry":{"type":"Point","coordinates":[-48.603764,-27.590271]}},{"type":"Feature","properties":{"nome_acao":"ASSOCIAÇÃO SOCIAL UNIFAVELA","nome_comunidade":"***","localidade":"Maré, Rio de Janeiro, Rio de Janeiro 21040, Brazil","organizacao":"ASSOCIAÇÃO SOCIAL UNIFAVELA","categoria":"Comunicação, Inclusão Digital e Educação Popular","municipio":"Rio de Janeiro","premiado":false,"uf":"RJ"},"geometry":{"type":"Point","coordinates":[-43.24778,-22.858124]}},{"type":"Feature","properties":{"nome_acao":"ASSOCIAÇÃO SÓCIO CULTURAL CASTELO SÃO JORGE - PROJETO ARTE URBANA VIVA NO QUILOMBO URBANO SÃO BENEDITO - GALERIA A CÉU ABERTO - LAVRAS MG","nome_comunidade":"***","localidade":"Rua Alfredo Marani Lavras - Minas Gerais, 37200-000, Brasil","organizacao":"ASSOCIAÇÃO SÓCIO CULTURAL CASTELO SÃO JORGE - PROJETO ARTE URBANA VIVA NO QUILOMBO URBANO SÃO BENEDITO - GALERIA A CÉU ABERTO - LAVRAS MG","categoria":"Cultura e Memória","municipio":"Lavras","premiado":false,"uf":"MG"},"geometry":{"type":"Point","coordinates":[-45.005647,-21.2566538]}},{"type":"Feature","properties":{"nome_acao":"ASSOCIAÇÃO SÓCIO CULTURAL DE MAJOR SALES /PONTO DE CULTURA TEAR CULTURAL","nome_comunidade":"***","localidade":"Major Sales, Rio Grande do Norte, Brasil","organizacao":"ASSOCIAÇÃO SÓCIO CULTURAL DE MAJOR SALES /PONTO DE CULTURA TEAR CULTURAL","categoria":"Cultura e Memória","municipio":"Major Sales","premiado":false,"uf":"RN"},"geometry":{"type":"Point","coordinates":[-38.322661,-6.406338]}},{"type":"Feature","properties":{"nome_acao":"ASSOCIAÇÃO UBUNTU","nome_comunidade":"***","localidade":"Teresina, Piauí, Brasil","organizacao":"ASSOCIAÇÃO UBUNTU","categoria":"Saúde Integral e Dignidade Humana","municipio":"Teresina","premiado":false,"uf":"PI"},"geometry":{"type":"Point","coordinates":[-42.809588,-5.08964]}},{"type":"Feature","properties":{"nome_acao":"ASSOCIAÇÃO VOAR","nome_comunidade":"***","localidade":"Fortaleza, Ceará, Brazil","organizacao":"ASSOCIAÇÃO VOAR","categoria":"Acesso à Justiça e Combate às Desigualdades","municipio":"Fortaleza","premiado":false,"uf":"CE"},"geometry":{"type":"Point","coordinates":[-38.521799,-3.730451]}},{"type":"Feature","properties":{"nome_acao":"ATELIÊ AÇÃO COM PÃO","nome_comunidade":"Capão Redondo","localidade":"Capão Redondo, São Paulo, São Paulo, Brasil","organizacao":"INSTITUTO AÇÃO GERAL","categoria":"Acesso à Justiça e Combate às Desigualdades","municipio":"São Paulo","premiado":false,"uf":"SP"},"geometry":{"type":"Point","coordinates":[-46.7793,-23.6707]}},{"type":"Feature","properties":{"nome_acao":"ATELIÊ DO LIXO","nome_comunidade":"Cachoeira","localidade":"Estrada Municipal Ramiro Catto Santa Isabel - São Paulo, Brasil","organizacao":"PSF CACHOEIRA","categoria":"Planejamento Urbano, Gestão de Riscos e Responsabilidade Climática","municipio":"Santa Isabel","premiado":false,"uf":"SP"},"geometry":{"type":"Point","coordinates":[-46.222135,-23.3664467]}},{"type":"Feature","properties":{"nome_acao":"ATIVIDADE DIVERSAS DO MOVIMENTO HIP HOP COM OS 5 ELEMENTOS, ATIVIDADES ESPORTIVAS, SOCIAIS, TECNOLOGIA.","nome_comunidade":"Centros Culturais, Associações de Bairos, Praças da Cidade e Locais Históricos do Acre","localidade":"Rua Euclides Da Cunha Rio Branco - Acre, 69905-250, Brasil","organizacao":"GRUPO MUSICAL OS COBRAS DANCE E GRUPO DE HIP HOP MOCAMBO","categoria":"Cultura e Memória","municipio":"Rio Branco","premiado":false,"uf":"AC"},"geometry":{"type":"Point","coordinates":[-67.8347935,-9.9714365]}},{"type":"Feature","properties":{"nome_acao":"ATIVIDADES DE EDUCAÇÃO E CULTURA PARA A INF NCIA E JUVENTUDE NA COMUNIDADE DA NOVA REPÚBLICA, SALVADOR/BA","nome_comunidade":"***","localidade":"Rua Nova Republica Salvador - Bahia, 41925, Brasil","organizacao":"ATIVIDADES DE EDUCAÇÃO E CULTURA PARA A INF NCIA E JUVENTUDE NA COMUNIDADE DA NOVA REPÚBLICA, SALVADOR/BA","categoria":"Cultura e Memória","municipio":"Salvador","premiado":false,"uf":"BA"},"geometry":{"type":"Point","coordinates":[-38.4732558,-13.0034454]}},{"type":"Feature","properties":{"nome_acao":"ATIVIDADES PERMANENTES DO PONTO DE CULTURA E MEMÓRIA VIDIGAL CULTURAL","nome_comunidade":"***","localidade":"Avenida Presidente João Goulart, Vidigal, Rio de Janeiro - Rio de Janeiro, 22450, Brasil","organizacao":"ATIVIDADES PERMANENTES DO PONTO DE CULTURA E MEMÓRIA VIDIGAL CULTURAL","categoria":"Cultura e Memória","municipio":"Rio de Janeiro","premiado":false,"uf":"RJ"},"geometry":{"type":"Point","coordinates":[-43.2371043,-22.9943108]}},{"type":"Feature","properties":{"nome_acao":"ATLETAS DA MANHÃ","nome_comunidade":"***","localidade":"Salvador, Bahia, Brasil","organizacao":"ATLETAS DA MANHÃ","categoria":"Comunicação, Inclusão Digital e Educação Popular","municipio":"Salvador","premiado":false,"uf":"BA"},"geometry":{"type":"Point","coordinates":[-38.481277,-12.98225]}},{"type":"Feature","properties":{"nome_acao":"AULAS DE ALFABETIZAÇÃO E LETRAMENTO","nome_comunidade":"Morro do Borel","localidade":"Morro do Borel, R. S. Miguel, Rio de Janeiro, Rio de Janeiro 20530, Brasil","organizacao":"OFICINA DE ESCRITA","categoria":"Comunicação, Inclusão Digital e Educação Popular","municipio":"Rio de Janeiro","premiado":false,"uf":"RJ"},"geometry":{"type":"Point","coordinates":[-43.254628,-22.943647]}},{"type":"Feature","properties":{"nome_acao":"AULAS DE REFORÇO ESCOLAR","nome_comunidade":"Vila Vale do Salso- bairro Restinga","localidade":"Porto Alegre, Rio Grande do Sul, Brasil","organizacao":"ASSOCIAÇÃO DE MORADORES DO VALE DO SALSO- AMOVAS","categoria":"Comunicação, Inclusão Digital e Educação Popular","municipio":"Porto Alegre","premiado":false,"uf":"RS"},"geometry":{"type":"Point","coordinates":[-51.230377,-30.0325]}},{"type":"Feature","properties":{"nome_acao":"AUTONOMIA ZN","nome_comunidade":"Jardim Filhos da Terra","localidade":"Travessa Igarapé Progresso São Paulo - São Paulo, 02325-070, Brasil","organizacao":"AUTONOMIA ZN","categoria":"Saúde Integral e Dignidade Humana","municipio":"São Paulo","premiado":false,"uf":"SP"},"geometry":{"type":"Point","coordinates":[-46.5848151,-23.4563016]}},{"type":"Feature","properties":{"nome_acao":"BACKSTAGE - OS CRIAS DO BAILE. CURSOS DE PRODUÇÃO MUSICAL E GERENCIAMENTO DE CARREIRA","nome_comunidade":"***","localidade":"Sh Itapoa /Cond Itapoa Ii Ql 1 Cj H Brasília - Federal District, 71590-494, Brazil","organizacao":"BACKSTAGE - OS CRIAS DO BAILE. CURSOS DE PRODUÇÃO MUSICAL E GERENCIAMENTO DE CARREIRA","categoria":"Cultura e Memória","municipio":"Brasília","premiado":false,"uf":"DF"},"geometry":{"type":"Point","coordinates":[-47.7795148,-15.7518875]}},{"type":"Feature","properties":{"nome_acao":"BAILE PELO CERTO","nome_comunidade":"***","localidade":"Rua 7 De Setembro Cachoeira - Bahia, 44360, Brasil","organizacao":"BAILE PELO CERTO","categoria":"Comunicação, Inclusão Digital e Educação Popular","municipio":"Cachoeira","premiado":false,"uf":"BA"},"geometry":{"type":"Point","coordinates":[-38.9631336,-12.6059244]}},{"type":"Feature","properties":{"nome_acao":"BAIXADA EM MOVIMENTO","nome_comunidade":"***","localidade":"Rua Machado De Assis, Vilar Dos Teles, São João de Meriti - Rio de Janeiro, 55555-555, Brasil","organizacao":"BAIXADA EM MOVIMENTO","categoria":"Acesso à Justiça e Combate às Desigualdades","municipio":"São João de Meriti","premiado":true,"uf":"RJ"},"geometry":{"type":"Point","coordinates":[-43.3764639,-22.7695031]}},{"type":"Feature","properties":{"nome_acao":"BAJUBA ODARA - RESUMO HISTÓRICO DO MOVIMENTO POLÍTICO E ORGANIZADO DE PESSOAS TRANS NO BRASIL","nome_comunidade":"***","localidade":"Picos, Piauí, Brasil","organizacao":"BAJUBA ODARA - RESUMO HISTÓRICO DO MOVIMENTO POLÍTICO E ORGANIZADO DE PESSOAS TRANS NO BRASIL","categoria":"Cultura e Memória","municipio":"Picos","premiado":false,"uf":"PI"},"geometry":{"type":"Point","coordinates":[-41.468505,-7.082354]}},{"type":"Feature","properties":{"nome_acao":"BALANCO DA GINGA AO SOM DO GUNGA","nome_comunidade":"***","localidade":"Belém, Pará, Brasil","organizacao":"BALANCO DA GINGA AO SOM DO GUNGA","categoria":"Cultura e Memória","municipio":"Belém","premiado":false,"uf":"PA"},"geometry":{"type":"Point","coordinates":[-48.4682,-1.45056]}},{"type":"Feature","properties":{"nome_acao":"BALÉ DA RALÉ","nome_comunidade":"***","localidade":"Rua Santa Helena 51, Quintas, Natal - Rio Grande do Norte, 59050-130, Brasil","organizacao":"BALÉ DA RALÉ","categoria":"Cultura e Memória","municipio":"Natal","premiado":false,"uf":"RN"},"geometry":{"type":"Point","coordinates":[-35.232588,-5.803002]}},{"type":"Feature","properties":{"nome_acao":"BALÉ EXPRESSÃO MORROS","nome_comunidade":"***","localidade":"Santos, São Paulo, Brasil","organizacao":"BALÉ EXPRESSÃO MORROS","categoria":"Cultura e Memória","municipio":"Santos","premiado":false,"uf":"SP"},"geometry":{"type":"Point","coordinates":[-46.333889,-23.960833]}},{"type":"Feature","properties":{"nome_acao":"BALÉ FOLCLÓRICO DA AMAZÔNIA A DANÇA POPULAR NA PERIFERIA","nome_comunidade":"***","localidade":"Icoaraci, Belém, Pará 66811, Brasil","organizacao":"BALÉ FOLCLÓRICO DA AMAZÔNIA A DANÇA POPULAR NA PERIFERIA","categoria":"Cultura e Memória","municipio":"Belém","premiado":false,"uf":"PA"},"geometry":{"type":"Point","coordinates":[-48.472096,-1.30994]}},{"type":"Feature","properties":{"nome_acao":"BALLET RAIO DE LUZ","nome_comunidade":"***","localidade":"Igarassu, Pernambuco, Brasil","organizacao":"BALLET RAIO DE LUZ","categoria":"Cultura e Memória","municipio":"Igarassu","premiado":false,"uf":"PE"},"geometry":{"type":"Point","coordinates":[-34.906113,-7.835442]}},{"type":"Feature","properties":{"nome_acao":"BANANA FLOW","nome_comunidade":"***","localidade":"Londrina, Paraná, Brasil","organizacao":"BANANA FLOW","categoria":"Cultura e Memória","municipio":"Londrina","premiado":false,"uf":"PR"},"geometry":{"type":"Point","coordinates":[-51.159502,-23.311288]}},{"type":"Feature","properties":{"nome_acao":"BANCA DO POVO","nome_comunidade":"***","localidade":"Cidade de Deus, 22773, Rio de Janeiro, Rio de Janeiro, Brasil","organizacao":"BANCA DO POVO","categoria":"Comunicação, Inclusão Digital e Educação Popular","municipio":"Rio de Janeiro","premiado":false,"uf":"RJ"},"geometry":{"type":"Point","coordinates":[-43.3629,-22.948]}},{"type":"Feature","properties":{"nome_acao":"BANCADÃO","nome_comunidade":"***","localidade":"Itaquera, São Paulo, São Paulo, Brazil","organizacao":"BANCADÃO","categoria":"Economia Solidária","municipio":"São Paulo","premiado":false,"uf":"SP"},"geometry":{"type":"Point","coordinates":[-46.4555,-23.5361]}},{"type":"Feature","properties":{"nome_acao":"BANCO COMUNITÁRIO OLHOS D' ÁGUA E MOEDA SOCIAL TERRA","nome_comunidade":"***","localidade":"Igaci, Alagoas, Brasil","organizacao":"BANCO COMUNITÁRIO OLHOS D' ÁGUA E MOEDA SOCIAL TERRA","categoria":"Economia Solidária","municipio":"Igaci","premiado":false,"uf":"AL"},"geometry":{"type":"Point","coordinates":[-36.637191,-9.537678]}},{"type":"Feature","properties":{"nome_acao":"BANCO COMUNITÁRIO PADRE LEO COMMISSARI","nome_comunidade":"***","localidade":"Passagem Dos Cafezais 64673, Montanhão, São Bernardo do Campo - São Paulo, 99999-999, Brasil","organizacao":"BANCO COMUNITÁRIO PADRE LEO COMMISSARI","categoria":"Economia Solidária","municipio":"São Bernardo do Campo","premiado":false,"uf":"SP"},"geometry":{"type":"Point","coordinates":[-46.524568,-23.73847]}},{"type":"Feature","properties":{"nome_acao":"BANCO COMUNITÁRIO SANTA LUZIA","nome_comunidade":"***","localidade":"Salvador, Bahia, Brasil","organizacao":"BANCO COMUNITÁRIO SANTA LUZIA","categoria":"Economia Solidária","municipio":"Salvador","premiado":false,"uf":"BA"},"geometry":{"type":"Point","coordinates":[-38.481277,-12.98225]}},{"type":"Feature","properties":{"nome_acao":"BANCO LAGUNA","nome_comunidade":"***","localidade":"Vergel Do Lago, 57015, Maceió, Alagoas, Brasil","organizacao":"BANCO LAGUNA","categoria":"Economia Solidária","municipio":"Maceió","premiado":false,"uf":"AL"},"geometry":{"type":"Point","coordinates":[-35.7578,-9.6549]}},{"type":"Feature","properties":{"nome_acao":"BAQUE CT NA ESCOLA: RESGATANDO AS TRADIÇÕES CULTURAIS EM ESCOLAS DE CIDADE TIRADENTES","nome_comunidade":"***","localidade":"Cidade Tiradentes, São Paulo, São Paulo, Brasil","organizacao":"BAQUE CT NA ESCOLA: RESGATANDO AS TRADIÇÕES CULTURAIS EM ESCOLAS DE CIDADE TIRADENTES","categoria":"Cultura e Memória","municipio":"São Paulo","premiado":false,"uf":"SP"},"geometry":{"type":"Point","coordinates":[-46.4092,-23.5825]}},{"type":"Feature","properties":{"nome_acao":"BAQUE MULHER CURITIBA","nome_comunidade":"***","localidade":"Curitiba, Paraná, Brasil","organizacao":"BAQUE MULHER CURITIBA","categoria":"Cultura e Memória","municipio":"Curitiba","premiado":false,"uf":"PR"},"geometry":{"type":"Point","coordinates":[-49.271272,-25.429596]}},{"type":"Feature","properties":{"nome_acao":"BAQUE MULHER JOÃO PESSOA","nome_comunidade":"***","localidade":"João Pessoa, Paraíba, Brasil","organizacao":"BAQUE MULHER JOÃO PESSOA","categoria":"Cultura e Memória","municipio":"João Pessoa","premiado":false,"uf":"PB"},"geometry":{"type":"Point","coordinates":[-34.882028,-7.121598]}},{"type":"Feature","properties":{"nome_acao":"BARCA LITERÁRIA","nome_comunidade":"***","localidade":"Passagem Cameta, Telégrafo, Belém - Pará, 66113-080, Brasil","organizacao":"BARCA LITERÁRIA","categoria":"Acesso à Justiça e Combate às Desigualdades","municipio":"Belém","premiado":false,"uf":"PA"},"geometry":{"type":"Point","coordinates":[-48.4917802,-1.4265701]}},{"type":"Feature","properties":{"nome_acao":"BARUERI RAP EM CENA","nome_comunidade":"***","localidade":"Barueri, São Paulo, Brasil","organizacao":"BARUERI RAP EM CENA","categoria":"Cultura e Memória","municipio":"Barueri","premiado":false,"uf":"SP"},"geometry":{"type":"Point","coordinates":[-46.876461,-23.511218]}},{"type":"Feature","properties":{"nome_acao":"BATALHA DA CENTRAL","nome_comunidade":"***","localidade":"Betim, Minas Gerais, Brasil","organizacao":"BATALHA DA CENTRAL","categoria":"Cultura e Memória","municipio":"Betim","premiado":false,"uf":"MG"},"geometry":{"type":"Point","coordinates":[-44.198333,-19.968056]}},{"type":"Feature","properties":{"nome_acao":"BATALHA DA EXTREMO","nome_comunidade":"***","localidade":"Restinga, 91790, Porto Alegre, Rio Grande do Sul, Brasil","organizacao":"BATALHA DA EXTREMO","categoria":"Cultura e Memória","municipio":"Porto Alegre","premiado":false,"uf":"RS"},"geometry":{"type":"Point","coordinates":[-51.1449,-30.1528]}},{"type":"Feature","properties":{"nome_acao":"BATALHA DA GLACIAL","nome_comunidade":"***","localidade":"Rua Pindaré 20, Santa Cruz, Rio de Janeiro - Rio de Janeiro, 23515, Brasil","organizacao":"BATALHA DA GLACIAL","categoria":"Cultura e Memória","municipio":"Rio de Janeiro","premiado":false,"uf":"RJ"},"geometry":{"type":"Point","coordinates":[-43.684528,-22.919899]}},{"type":"Feature","properties":{"nome_acao":"BATALHA DA PONTE","nome_comunidade":"***","localidade":"Ponte Juscelino Kubitschek, R. Estado do Acre, Rio Branco, Acre, Brasil","organizacao":"BATALHA DA PONTE","categoria":"Cultura e Memória","municipio":"Rio Branco","premiado":false,"uf":"AC"},"geometry":{"type":"Point","coordinates":[-67.808068,-9.977643]}},{"type":"Feature","properties":{"nome_acao":"BATALHA DA PRAINHA","nome_comunidade":"***","localidade":"Blumenau, Santa Catarina, Brasil","organizacao":"BATALHA DA PRAINHA","categoria":"Cultura e Memória","municipio":"Blumenau","premiado":false,"uf":"SC"},"geometry":{"type":"Point","coordinates":[-49.065803,-26.919557]}},{"type":"Feature","properties":{"nome_acao":"BATALHA DA TERÇA","nome_comunidade":"Valentina de Figueiredo","localidade":"Mercado Público Valentina Figueiredo, R. Mariângela Lucena Peixoto, s/n, João Pessoa, Paraíba 58911, Brasil","organizacao":"@BATALHADATERCA","categoria":"Cultura e Memória","municipio":"João Pessoa","premiado":false,"uf":"PB"},"geometry":{"type":"Point","coordinates":[-34.849888,-7.202343]}},{"type":"Feature","properties":{"nome_acao":"BATALHA DAS GURIAS","nome_comunidade":"***","localidade":"Distrito Federal, Brasil","organizacao":"BATALHA DAS GURIAS","categoria":"Cultura e Memória","municipio":"Brasília","premiado":false,"uf":"DF"},"geometry":{"type":"Point","coordinates":[-47.7905611979646,-15.6845683816174]}},{"type":"Feature","properties":{"nome_acao":"BATALHA DE HIP HOP DO FINAL DE LINHA DA ITINGA- BATALHA DO FDL","nome_comunidade":"***","localidade":"Itinga City Café Da Manhã, Lauro de Freitas, Bahia, Brasil","organizacao":"BATALHA DE HIP HOP DO FINAL DE LINHA DA ITINGA- BATALHA DO FDL","categoria":"Cultura e Memória","municipio":"Lauro de Freitas","premiado":false,"uf":"BA"},"geometry":{"type":"Point","coordinates":[-38.33693,-12.893505]}},{"type":"Feature","properties":{"nome_acao":"BATALHA DELARUA","nome_comunidade":"***","localidade":"Salvador, Bahia, Brasil","organizacao":"BATALHA DELARUA","categoria":"Cultura e Memória","municipio":"Salvador","premiado":false,"uf":"BA"},"geometry":{"type":"Point","coordinates":[-38.481277,-12.98225]}},{"type":"Feature","properties":{"nome_acao":"BATALHA DO CÁLICE","nome_comunidade":"***","localidade":"Largo do Pará, Av. Francisco Glicério, 431, Campinas, São Paulo 13015, Brasil","organizacao":"BATALHA DO CÁLICE","categoria":"Cultura e Memória","municipio":"Campinas","premiado":false,"uf":"SP"},"geometry":{"type":"Point","coordinates":[-47.056646,-22.910758]}},{"type":"Feature","properties":{"nome_acao":"BATALHA DO CENTRO HISTÓRICO","nome_comunidade":"***","localidade":"Salvador, Bahia, Brasil","organizacao":"BATALHA DO CENTRO HISTÓRICO","categoria":"Cultura e Memória","municipio":"Salvador","premiado":false,"uf":"BA"},"geometry":{"type":"Point","coordinates":[-38.481277,-12.98225]}},{"type":"Feature","properties":{"nome_acao":"BATALHA DO CEU","nome_comunidade":"***","localidade":"Rua Argeu Egídio Dos Santos Santa Bárbara d'Oeste - São Paulo, 13454, Brasil","organizacao":"BATALHA DO CEU","categoria":"Cultura e Memória","municipio":"Santa Bárbara D'oeste","premiado":false,"uf":"SP"},"geometry":{"type":"Point","coordinates":[-47.3899476,-22.7314943]}},{"type":"Feature","properties":{"nome_acao":"BATALHA DO ESCRITORIO","nome_comunidade":"Jd. Eliza Maria - Pq. Taipas - Jd. Damasceno - Jd. Carumbé - Jd. Vista Alegre Entre outras","localidade":"Brasilândia, São Paulo, São Paulo, Brasil","organizacao":"BATALHA DO ESCRITORIO","categoria":"Cultura e Memória","municipio":"São Paulo","premiado":false,"uf":"SP"},"geometry":{"type":"Point","coordinates":[-46.6836,-23.4547]}},{"type":"Feature","properties":{"nome_acao":"BATALHA DO ESCRITORIO (BATALHA DE RIMAS)","nome_comunidade":"Jd. Eliza Maria - Brasilandia","localidade":"Brasilândia, São Paulo, São Paulo, Brasil","organizacao":"BTALHA DO ESCRITORIO E FODOP FILMES","categoria":"Cultura e Memória","municipio":"São Paulo","premiado":false,"uf":"SP"},"geometry":{"type":"Point","coordinates":[-46.6836,-23.4547]}},{"type":"Feature","properties":{"nome_acao":"BATALHA DO FINAL DE LINHA DE ITINGA- BATALHA DO FDL","nome_comunidade":"***","localidade":"Itinga City Café Da Manhã, Lauro de Freitas, Bahia, Brasil","organizacao":"BATALHA DO FINAL DE LINHA DE ITINGA- BATALHA DO FDL","categoria":"Cultura e Memória","municipio":"Lauro de Freitas","premiado":false,"uf":"BA"},"geometry":{"type":"Point","coordinates":[-38.33693,-12.893505]}},