{
"type": "FeatureCollection",
"name": "redus",
"crs": { "type": "name", "properties": { "name": "urn:ogc:def:crs:OGC:1.3:CRS84" } },
"features": [
{ "type": "Feature", "properties": { "nome_acao": "Coletivo # noizzpornoizz@sigla", "nome_comunidade": "Jd sao saverio", "localidade": "Praça Professor Eduardo Costa São Paulo - São Paulo, 04177, Brasil", "organizacao": "#noizzpornoizz@sigla", "categoria": "Acesso à Justiça e Combate às Desigualdades", "estado": "SP", "municipio": "São Paulo" }, "geometry": { "type": "Point", "coordinates": [ -46.6022, -23.608 ] } },
{ "type": "Feature", "properties": { "nome_acao": "Coletivo # noizzpornoizz@sigla", "nome_comunidade": "Jd sao saverio", "localidade": "Praça Professor Eduardo Costa São Paulo - São Paulo, 04177, Brasil", "organizacao": "#noizzpornoizz@sigla", "categoria": "Comunicação, Inclusão Digital e Educação Popular", "estado": "SP", "municipio": "São Paulo" }, "geometry": { "type": "Point", "coordinates": [ -46.6070147, -23.6400105 ] } },
{ "type": "Feature", "properties": { "nome_acao": "Ações coletivas \"construções\" na periferia de Salvador", "nome_comunidade": "Cajazeiras", "localidade": "Rua Álvaro Da Franca Rocha Salvador - Bahia, 41334, Brasil", "organizacao": "***", "categoria": "Planejamento Urbano, Gestão de Riscos e Responsabilidade Climática", "estado": "BA", "municipio": "Salvador" }, "geometry": { "type": "Point", "coordinates": [ -38.4255027, -12.8976925 ] } },
{ "type": "Feature", "properties": { "nome_acao": "Mnlm", "nome_comunidade": "Comunidade Roda engenho", "localidade": "Recife, Pernambuco, Brasil", "organizacao": "***", "categoria": "Saúde Integral e Dignidade Humana", "estado": "PE", "municipio": "Recife" }, "geometry": { "type": "Point", "coordinates": [ -34.884819, -8.058493 ] } },
{ "type": "Feature", "properties": { "nome_acao": "Associação Comunitária Despertar", "nome_comunidade": "Cidade Ademar, Pedreira, Americanópolis", "localidade": "Rua Antônio Bispo De Souza São Paulo - São Paulo, 04416, Brasil", "organizacao": "***", "categoria": "Acesso à Justiça e Combate às Desigualdades", "estado": "SP", "municipio": "São Paulo" }, "geometry": { "type": "Point", "coordinates": [ -46.6412384, -23.6754299 ] } },
{ "type": "Feature", "properties": { "nome_acao": "Associacao Cultural esportiva Cafesopolis", "nome_comunidade": "Cafesopolis", "localidade": "Rua Cafesópolis, Imbiribeira, Recife - Pernambuco, 51150, Brasil", "organizacao": "***", "categoria": "Soberania Alimentar e Nutricional", "estado": "PE", "municipio": "Recife" }, "geometry": { "type": "Point", "coordinates": [ -34.9090074, -8.0988338 ] } },
{ "type": "Feature", "properties": { "nome_acao": "Biblioteca Comunitária Chico Parafuso", "nome_comunidade": "Bairro do Rodolfo Teófilo", "localidade": "Avenida Jovita Feitosa 843, Rodolfo Teófilo, Fortaleza - Ceará, 60431-081, Brasil", "organizacao": "***", "categoria": "Cultura e Memória", "estado": "CE", "municipio": "Fortaleza" }, "geometry": { "type": "Point", "coordinates": [ -38.551477, -3.739098 ] } },
{ "type": "Feature", "properties": { "nome_acao": "Coletivo Preta Velha", "nome_comunidade": "Vila Cruzeiro", "localidade": "Cruzeiro, Porto Alegre, Rio Grande do Sul 90850, Brasil", "organizacao": "***", "categoria": "Soberania Alimentar e Nutricional", "estado": "RS", "municipio": "Porto Alegre" }, "geometry": { "type": "Point", "coordinates": [ -51.216687, -30.069823 ] } },
{ "type": "Feature", "properties": { "nome_acao": "Coletivo Rádio do Coque", "nome_comunidade": "Coque", "localidade": "Rua Da Rosa, Ilha Joana Bezerra, Recife - Pernambuco, 50080, Brasil", "organizacao": "***", "categoria": "Comunicação, Inclusão Digital e Educação Popular", "estado": "PE", "municipio": "Recife" }, "geometry": { "type": "Point", "coordinates": [ -34.9030504, -8.0739654 ] } },
{ "type": "Feature", "properties": { "nome_acao": "DAQ: Espaço de Arte, Cultura, Educação e Empreendimento Social", "nome_comunidade": "Aloisio Diógenes(Cruzeiro)", "localidade": "Aloísio Diógenes, 63475, Jaguaribe, Ceará, Brasil", "organizacao": "***", "categoria": "Cultura e Memória", "estado": "CE", "municipio": "Jaguaribe" }, "geometry": { "type": "Point", "coordinates": [ -38.62, -5.88 ] } },
{ "type": "Feature", "properties": { "nome_acao": "Gurizada Campeira", "nome_comunidade": "Morro da Cruz", "localidade": "Travessa Santa Tereza, São José, Porto Alegre - Rio Grande do Sul, 91520-000, Brasil", "organizacao": "***", "categoria": "Cultura e Memória", "estado": "RS", "municipio": "Porto Alegre" }, "geometry": { "type": "Point", "coordinates": [ -51.1601846, -30.0801739 ] } },
{ "type": "Feature", "properties": { "nome_acao": "Coletivo Caranguejo Tabaiares Resiste", "nome_comunidade": "Caranguejo Tabaiares", "localidade": "Recife, Pernambuco, Brasil", "organizacao": "Caranguejo Tabaiares Resiste", "categoria": "Planejamento Urbano, Gestão de Riscos e Responsabilidade Climática", "estado": "PE", "municipio": "Recife" }, "geometry": { "type": "Point", "coordinates": [ -34.884819, -8.058493 ] } },
{ "type": "Feature", "properties": { "nome_acao": "Cantinho da leitura", "nome_comunidade": "Santo Amaro", "localidade": "Recife, Pernambuco, Brasil", "organizacao": "Clube de Mães Santa Mônica", "categoria": "Cultura e Memória", "estado": "PE", "municipio": "Recife" }, "geometry": { "type": "Point", "coordinates": [ -34.884819, -8.058493 ] } },
{ "type": "Feature", "properties": { "nome_acao": "Literatura", "nome_comunidade": "Badajos", "localidade": "Ipixuna do Pará, Pará, Brasil", "organizacao": "***", "categoria": "Cultura e Memória", "estado": "PA", "municipio": "Ipixuna do Pará" }, "geometry": { "type": "Point", "coordinates": [ -47.496546, -2.559214 ] } },
{ "type": "Feature", "properties": { "nome_acao": "Livraria Novo Jardim", "nome_comunidade": "Conj Res Novo Jardim, Eustáquio Gomes, no bairro Cidade Universitária", "localidade": "Cidade Universitária, Maceió, Alagoas, Brasil", "organizacao": "***", "categoria": "Cultura e Memória", "estado": "AL", "municipio": "Maceió" }, "geometry": { "type": "Point", "coordinates": [ -35.7682, -9.5444 ] } },
{ "type": "Feature", "properties": { "nome_acao": "Associação de moradores do alto Antônio Felix, Núcleo de Mediação comunitário de Conflitos de Nova Descoberta", "nome_comunidade": "Associação de moradores do alto Antônio Felix", "localidade": "Recife, Pernambuco, Brasil", "organizacao": "G10 favela", "categoria": "Planejamento Urbano, Gestão de Riscos e Responsabilidade Climática", "estado": "PE", "municipio": "Recife" }, "geometry": { "type": "Point", "coordinates": [ -34.884819, -8.058493 ] } },
{ "type": "Feature", "properties": { "nome_acao": "Grupo Mãos Amigas", "nome_comunidade": "Comunidade da Baixa e Comunidade do Canal Guarulhos", "localidade": "Jardim São Paulo, 50910, Recife, Pernambuco, Brasil", "organizacao": "Grupo Mãos Amigas", "categoria": "Soberania Alimentar e Nutricional", "estado": "PE", "municipio": "Recife" }, "geometry": { "type": "Point", "coordinates": [ -34.9421, -8.0808 ] } },
{ "type": "Feature", "properties": { "nome_acao": "Instituto Yaa", "nome_comunidade": "Jardim São Paulo", "localidade": "Jardim São Paulo, 50910, Recife, Pernambuco, Brasil", "organizacao": "Instituto Yaa", "categoria": "Cultura e Memória", "estado": "PE", "municipio": "Recife" }, "geometry": { "type": "Point", "coordinates": [ -34.9421, -8.0808 ] } },
{ "type": "Feature", "properties": { "nome_acao": "Movimento Popular pela moradia digna", "nome_comunidade": "Muribeca rua", "localidade": "Muribeca, 54355, Jaboatão dos Guararapes, Pernambuco, Brasil", "organizacao": "Mpmd", "categoria": "Saúde Integral e Dignidade Humana", "estado": "PE", "municipio": "Jaboatão dos Guararapes" }, "geometry": { "type": "Point", "coordinates": [ -34.95, -8.14 ] } },
{ "type": "Feature", "properties": { "nome_acao": "SOMOS TODOS MURIBECA", "nome_comunidade": "CONJUNTO MURIBECA E REGIÃO DA MUIRIBECA", "localidade": "Muribeca, 54355, Jaboatão dos Guararapes, Pernambuco, Brasil", "organizacao": "SOMOS TODOS MURIBECA", "categoria": "Planejamento Urbano, Gestão de Riscos e Responsabilidade Climática", "estado": "PE", "municipio": "Jaboatão dos Guararapes" }, "geometry": { "type": "Point", "coordinates": [ -34.95, -8.14 ] } },
{ "type": "Feature", "properties": { "nome_acao": "Projeto EcoEscola - Educação · Meio Ambiente · Cooperação - EEEP Darcy Ribeiro", "nome_comunidade": "Conjunto Esperança", "localidade": "Avenida Cônego De Castro 4801, Parque Santa Rosa (Apolo Xi), Fortaleza - Ceará, 60734-452, Brasil", "organizacao": "***", "categoria": "Planejamento Urbano, Gestão de Riscos e Responsabilidade Climática", "estado": "CE", "municipio": "Fortaleza" }, "geometry": { "type": "Point", "coordinates": [ -38.598405, -3.813857 ] } },
{ "type": "Feature", "properties": { "nome_acao": "Projeto família na praça", "nome_comunidade": "Bairro 17 de março", "localidade": "Rua Aloízio Dos Santos Aracaju - Sergipe, 49004, Brasil", "organizacao": "***", "categoria": "Cultura e Memória", "estado": "SE", "municipio": "Aracaju" }, "geometry": { "type": "Point", "coordinates": [ -37.0975747, -10.999675 ] } },
{ "type": "Feature", "properties": { "nome_acao": "Selo Produtos do Morro Rec", "nome_comunidade": "Castelo Encantado", "localidade": "Avenida Dos Jangadeiros 265, Vicente Pinzon, Fortaleza - Ceará, 60175-440, Brasil", "organizacao": "***", "categoria": "Cultura e Memória", "estado": "CE", "municipio": "Fortaleza" }, "geometry": { "type": "Point", "coordinates": [ -38.478711, -3.725785 ] } },
{ "type": "Feature", "properties": { "nome_acao": "Só líder comunitário", "nome_comunidade": "Jd tv vila Garcia Nova Marília Jd Marília", "localidade": "Rua Tenente Joaquim Da Costa Guimarães Bauru - São Paulo, 17021, Brasil", "organizacao": "***", "categoria": "Cultura e Memória", "estado": "SP", "municipio": "Bauru" }, "geometry": { "type": "Point", "coordinates": [ -49.0830327, -22.2937803 ] } },
{ "type": "Feature", "properties": { "nome_acao": "União Campo do Vila", "nome_comunidade": "Campo do Vila", "localidade": "Rua Sacadura Cabral 23, Espinheiro, Recife - Pernambuco, 52021, Brasil", "organizacao": "***", "categoria": "Soberania Alimentar e Nutricional", "estado": "PE", "municipio": "Recife" }, "geometry": { "type": "Point", "coordinates": [ -34.888145, -8.041464 ] } },
{ "type": "Feature", "properties": { "nome_acao": "CORAL \"EM TOM\" - gRUPO DE DANÇA ITALIANA", "nome_comunidade": "SALÃO PAROQUIAL DA IGREJA SANTA TERESA D\"ÁVILA", "localidade": "Avenida Assunção Santa Tereza do Oeste - Paraná, 85825-000, Brasil", "organizacao": "***", "categoria": "Cultura e Memória", "estado": "PR", "municipio": "Santa Tereza do Oeste" }, "geometry": { "type": "Point", "coordinates": [ -53.6216714, -25.0520212 ] } },
{ "type": "Feature", "properties": { "nome_acao": "Associação Comunidade das Águas (com atividades: Feira do Troca; Cine Rua Escura; Cultura de Favela; Mapeando a Ancestralidade na Periferia; Mutirão de Saúde; Tic Tac...).", "nome_comunidade": "Ibura", "localidade": "Rua Quarenta E Nove, Zumbi Do Pacheco, Jaboatão dos Guararapes - Pernambuco, 54245, Brasil", "organizacao": "Associação Comunidade das Águas", "categoria": "Cultura e Memória", "estado": "PE", "municipio": "Jaboatão dos Guararapes" }, "geometry": { "type": "Point", "coordinates": [ -34.9657971, -8.1287238 ] } },
{ "type": "Feature", "properties": { "nome_acao": "Mapeando a Ancestralidade no Ibura", "nome_comunidade": "Ibura/UR11", "localidade": "Rua Quarenta E Nove, Zumbi Do Pacheco, Jaboatão dos Guararapes - Pernambuco, 54245, Brasil", "organizacao": "Coletiva Periféricas", "categoria": "Comunicação, Inclusão Digital e Educação Popular", "estado": "PE", "municipio": "Jaboatão dos Guararapes" }, "geometry": { "type": "Point", "coordinates": [ -34.9657971, -8.1287238 ] } },
{ "type": "Feature", "properties": { "nome_acao": "Feira do Troca", "nome_comunidade": "Ibura/UR11", "localidade": "Rua Quarenta E Nove, Zumbi Do Pacheco, Jaboatão dos Guararapes - Pernambuco, 54245, Brasil", "organizacao": "Égbé Ómó L'omí", "categoria": "Comunicação, Inclusão Digital e Educação Popular", "estado": "PE", "municipio": "Jaboatão dos Guararapes" }, "geometry": { "type": "Point", "coordinates": [ -34.9657971, -8.1287238 ] } },
{ "type": "Feature", "properties": { "nome_acao": "Vivências e Ritmos no Pandeiro.", "nome_comunidade": "Ibura/UR11", "localidade": "Rua Quarenta E Nove, Zumbi Do Pacheco, Jaboatão dos Guararapes - Pernambuco, 54245, Brasil", "organizacao": "Ègbé Òmó L'omí", "categoria": "Cultura e Memória", "estado": "PE", "municipio": "Jaboatão dos Guararapes" }, "geometry": { "type": "Point", "coordinates": [ -34.9657971, -8.1287238 ] } },
{ "type": "Feature", "properties": { "nome_acao": "Oficinas Culturais.", "nome_comunidade": "Santo Antônio do Aracanguá", "localidade": "Santo Antônio do Aracanguá, São Paulo, Brasil", "organizacao": "Associação Cultural Aracanguaense de difusão Comunitária", "categoria": "Cultura e Memória", "estado": "SP", "municipio": "Santo Antônio do Aracanguá" }, "geometry": { "type": "Point", "coordinates": [ -50.49535, -20.935487 ] } },
{ "type": "Feature", "properties": { "nome_acao": "Rádio Evidência FM", "nome_comunidade": "Santo Antônio do Aracanguá", "localidade": "Rua Thomaz Sebastião De Mendonça Santo Antônio do Aracanguá - São Paulo, 16130-000, Brasil", "organizacao": "Associação Cultural Aracanguaense de Difusão Comunitária", "categoria": "Cultura e Memória", "estado": "SP", "municipio": "Santo Antônio do Aracanguá" }, "geometry": { "type": "Point", "coordinates": [ -50.4962247, -20.9340601 ] } },
{ "type": "Feature", "properties": { "nome_acao": "Cultura de Favela", "nome_comunidade": "Ibura/UR11", "localidade": "Rua Quarenta E Nove, Zumbi Do Pacheco, Jaboatão dos Guararapes - Pernambuco, 54245, Brasil", "organizacao": "Espaço Cultural das Marias", "categoria": "Comunicação, Inclusão Digital e Educação Popular", "estado": "PE", "municipio": "Jaboatão dos Guararapes" }, "geometry": { "type": "Point", "coordinates": [ -34.9657971, -8.1287238 ] } },
{ "type": "Feature", "properties": { "nome_acao": "Rolé No Mirante", "nome_comunidade": "Mãe Luíza", "localidade": "Rua Nova, Mãe Luíza, Natal - Rio Grande do Norte, Brasil", "organizacao": "Coletivo Mãe Luíza", "categoria": "Cultura e Memória", "estado": "RN", "municipio": "Natal" }, "geometry": { "type": "Point", "coordinates": [ -35.1923358, -5.7904525 ] } },
{ "type": "Feature", "properties": { "nome_acao": "ICNO ATHIS", "nome_comunidade": "Bairro do Sapê / Chácara Sol Nascente", "localidade": "Rua José Godofredo, Setor Socioeconômico 05a, São José dos Campos - São Paulo, 12220, Brasil", "organizacao": "ICNO ATHIS", "categoria": "Planejamento Urbano, Gestão de Riscos e Responsabilidade Climática", "estado": "SP", "municipio": "São José dos Campos" }, "geometry": { "type": "Point", "coordinates": [ -45.8674637, -23.1756326 ] } },
{ "type": "Feature", "properties": { "nome_acao": "ICNO ATHIS", "nome_comunidade": "Quilombo Coração Valente", "localidade": "Estrada Municipal Bom Jesus, Zona Preferencial 02 - Zap 2 A, Jacareí - São Paulo, Brasil", "organizacao": "ICNO ATHIS", "categoria": "Planejamento Urbano, Gestão de Riscos e Responsabilidade Climática", "estado": "SP", "municipio": "Jacareí" }, "geometry": { "type": "Point", "coordinates": [ -45.996289214900003, -23.33095925 ] } },
{ "type": "Feature", "properties": { "nome_acao": "Museu de Favela - MUF. Levantamento histórico da comunidade e preservação do patrimônio imaterial de Pavão, Pavãozinho e Cantagalo", "nome_comunidade": "Pavão, Pavãozinho e Cantagalo", "localidade": "Rua Saint Roman 200, Copacabana, Rio de Janeiro - Rio de Janeiro, 22071, Brasil", "organizacao": "Museu de Favela", "categoria": "Cultura e Memória", "estado": "RJ", "municipio": "Rio de Janeiro" }, "geometry": { "type": "Point", "coordinates": [ -43.196081, -22.981906 ] } },
{ "type": "Feature", "properties": { "nome_acao": "Ponto de Cultura Fuá de Quintal", "nome_comunidade": "Céu Azul", "localidade": "Rua Radialista Orlando Arcanjo 27, Céu Azul, Belo Horizonte - Minas Gerais, 31578-560, Brasil", "organizacao": "Ponto de Cultura Fuá de Quintal", "categoria": "Cultura e Memória", "estado": "MG", "municipio": "Belo Horizonte" }, "geometry": { "type": "Point", "coordinates": [ -44.001827, -19.816961 ] } },
{ "type": "Feature", "properties": { "nome_acao": "Ponto de Cultura Fuá de Quintal", "nome_comunidade": "Céu Azul", "localidade": "Rua Radialista Orlando Arcanjo, Céu Azul, Belo Horizonte - Minas Gerais, 31578-560, Brasil", "organizacao": "Ponto de Cultura Fuá de Quintal", "categoria": "Planejamento Urbano, Gestão de Riscos e Responsabilidade Climática", "estado": "MG", "municipio": "Belo Horizonte" }, "geometry": { "type": "Point", "coordinates": [ -44.0024996, -19.8168294 ] } },
{ "type": "Feature", "properties": { "nome_acao": "TPM Todas Para o Mar", "nome_comunidade": "Baía de Maracaípe", "localidade": "Ipojuca, Pernambuco, Brasil", "organizacao": "TPM Todas Para o Mar", "categoria": "Comunicação, Inclusão Digital e Educação Popular", "estado": "PE", "municipio": "Ipojuca" }, "geometry": { "type": "Point", "coordinates": [ -35.061107, -8.398077 ] } },
{ "type": "Feature", "properties": { "nome_acao": "TPM Todas Para o Mar", "nome_comunidade": "Baía de Maracaípe", "localidade": "Avenida Beira Mar Ipojuca - Pernambuco, Brasil", "organizacao": "TPM Todas Para o Mar", "categoria": "Acesso à Justiça e Combate às Desigualdades", "estado": "PE", "municipio": "Ipojuca" }, "geometry": { "type": "Point", "coordinates": [ -35.007482, -8.5270225 ] } },
{ "type": "Feature", "properties": { "nome_acao": "Batalha da terça", "nome_comunidade": "Valentina de Figueiredo", "localidade": "Mercado Público Valentina Figueiredo, R. Mariângela Lucena Peixoto, s/n, João Pessoa, Paraíba 58911, Brasil", "organizacao": "@batalhadaterca", "categoria": "Cultura e Memória", "estado": "PB", "municipio": "João Pessoa" }, "geometry": { "type": "Point", "coordinates": [ -34.849888, -7.202343 ] } },
{ "type": "Feature", "properties": { "nome_acao": "Passa a Visão Produções", "nome_comunidade": "Mãe Luiza", "localidade": "Rua Nova, Mãe Luíza, Natal - Rio Grande do Norte, Brasil", "organizacao": "Passa A Visão", "categoria": "Cultura e Memória", "estado": "RN", "municipio": "Natal" }, "geometry": { "type": "Point", "coordinates": [ -35.1923358, -5.7904525 ] } },
{ "type": "Feature", "properties": { "nome_acao": "Cozinha Afetiva Comunitária Sustentável", "nome_comunidade": "Comunidade do Engenho", "localidade": "Rua Manoel Soares Da Costa 13, Itaguaí - Rio de Janeiro, 23821-740, Brasil", "organizacao": "A.M.I.G.A.S. - Associação de Mulheres de Itaguaí Guerreiras e Articuladoras Sociais.", "categoria": "Soberania Alimentar e Nutricional", "estado": "RJ", "municipio": "Itaguaí" }, "geometry": { "type": "Point", "coordinates": [ -43.787955, -22.865129 ] } },
{ "type": "Feature", "properties": { "nome_acao": "LUTA POR MORADIA POPLAR URBANA E RURAL", "nome_comunidade": "OCPAÇÃO DA FAZ MEREM, OCPAÇÃO DA IMBRINHA,OCPAÇÃO DA FAZ.CASTELO,OCPAÇÃO DO N S DE FÁTIMA POV ARATU, LOT SANTA CATARINA ANTIGO GORÉ", "localidade": "Nossa Senhora do Socorro, Sergipe, Brasil", "organizacao": "AASSOCIAÇÃO COMUNITÁRIA N SRª. DE FATIMA DO ESTADO DE SERGIPE", "categoria": "Planejamento Urbano, Gestão de Riscos e Responsabilidade Climática", "estado": "SE", "municipio": "Nossa Senhora do Socorro" }, "geometry": { "type": "Point", "coordinates": [ -37.126486, -10.855311 ] } },
{ "type": "Feature", "properties": { "nome_acao": "Projeto de alimentação para crianças carentes.", "nome_comunidade": "Beco Novo Airao , Novo Paraíso", "localidade": "Rua Novo Airão, União, Manacapuru - Amazonas, 69400-000, Brasil", "organizacao": "ABAM", "categoria": "Soberania Alimentar e Nutricional", "estado": "AM", "municipio": "Manacapuru" }, "geometry": { "type": "Point", "coordinates": [ -60.6333436, -3.281868 ] } },
{ "type": "Feature", "properties": { "nome_acao": "ACAJAMAN - Associação Cultural e Agrícola dos jovens Ambientalistas da Paraíba", "nome_comunidade": "Bairro Santa Luzia", "localidade": "Rua Antunes Brandão 380, Alagoa Nova - Paraíba,, Brasil", "organizacao": "ACAJAMAN - Associação Cultural e Agrícola dos jovens Ambientalistas da Paraíba", "categoria": "Acesso à Justiça e Combate às Desigualdades", "estado": "PB", "municipio": "Alagoa Nova" }, "geometry": { "type": "Point", "coordinates": [ -35.764559, -7.065292 ] } },
{ "type": "Feature", "properties": { "nome_acao": "ação social de paulista", "nome_comunidade": "arthur Lundgren", "localidade": "Rua Surubim 10, Arthur Lundgren II, Paulista - Pernambuco, Brasil", "organizacao": "ação social de paulista", "categoria": "Soberania Alimentar e Nutricional", "estado": "PE", "municipio": "Paulista" }, "geometry": { "type": "Point", "coordinates": [ -34.894686, -7.923632 ] } },
{ "type": "Feature", "properties": { "nome_acao": "Kurta na Kombi", "nome_comunidade": "Jardim Progresso", "localidade": "Natal, Rio Grande do Norte, Brasil", "organizacao": "***", "categoria": "Cultura e Memória", "estado": "RN", "municipio": "Natal" }, "geometry": { "type": "Point", "coordinates": [ -35.208091, -5.805398 ] } },
{ "type": "Feature", "properties": { "nome_acao": "ID HIP HOP - INDENTIDADE HIP HOP", "nome_comunidade": "CEU AZUL", "localidade": "Rio Verde, Goiás, Brasil", "organizacao": "ACRH2 - ASSOCIAÇÃO CULTURAL RIO VERDENSE DE HIP HOP", "categoria": "Comunicação, Inclusão Digital e Educação Popular", "estado": "GO", "municipio": "Rio Verde" }, "geometry": { "type": "Point", "coordinates": [ -50.919122, -17.792125 ] } },
{ "type": "Feature", "properties": { "nome_acao": "Projeto Extensão Desenvolvimento Local Integrado e Sustentavel", "nome_comunidade": "Povoado Religioso Alto Sao Francisco", "localidade": "São João do Soter, Maranhão, Brasil", "organizacao": "ADAFIBRA", "categoria": "Planejamento Urbano, Gestão de Riscos e Responsabilidade Climática", "estado": "MA", "municipio": "São João do Soter" }, "geometry": { "type": "Point", "coordinates": [ -43.810927, -5.112232 ] } },
{ "type": "Feature", "properties": { "nome_acao": "Movimento Catamisto/arte sustentabilidade", "nome_comunidade": "Ilha do Maruim", "localidade": "Rua Campos Sales, Santa Teresa, Olinda - Pernambuco, 53120, Brasil", "organizacao": "Adppmao: Associação de Defesa, Proteção e Preservação de Olinda", "categoria": "Cultura e Memória", "estado": "PE", "municipio": "Olinda" }, "geometry": { "type": "Point", "coordinates": [ -34.8588011, -8.0260504 ] } },
{ "type": "Feature", "properties": { "nome_acao": "Cine de Quebrada", "nome_comunidade": "Brasília Teimosa, Maruim, Mãe Luiza, Passo da Pátria, Felipe Camarão, Favela do Detran, Favela da África, Rocas.", "localidade": "Natal, Rio Grande do Norte, Brasil", "organizacao": "Brota - Movimento de Ações Populares", "categoria": "Comunicação, Inclusão Digital e Educação Popular", "estado": "RN", "municipio": "Natal" }, "geometry": { "type": "Point", "coordinates": [ -35.208091, -5.805398 ] } },
{ "type": "Feature", "properties": { "nome_acao": "Assistencialismo e práticas ambientais", "nome_comunidade": "Pantanal", "localidade": "Aracaju, Sergipe, Brasil", "organizacao": "Associação comunitária social Jardim Esperança", "categoria": "Soberania Alimentar e Nutricional", "estado": "SE", "municipio": "Aracaju" }, "geometry": { "type": "Point", "coordinates": [ -37.077466, -10.916206 ] } },
{ "type": "Feature", "properties": { "nome_acao": "Aldeia Hip Hop - Casa do Hip Hop Cearense", "nome_comunidade": "Nova Metrópole", "localidade": "Rua 210, Nova Metrópole, Caucaia - Ceará, 61600-000, Brasil", "organizacao": "Aldeia Hip Hop / CGC", "categoria": "Saúde Integral e Dignidade Humana", "estado": "CE", "municipio": "Caucaia" }, "geometry": { "type": "Point", "coordinates": [ -38.657898, -3.7656855 ] } },
{ "type": "Feature", "properties": { "nome_acao": "Pra Hoje", "nome_comunidade": "complexo de Vila Aliança", "localidade": "Rua Do Libretista, Bangu, Rio de Janeiro - Rio de Janeiro, 21842, Brasil", "organizacao": "Aliança Ativa - grupo Apoio", "categoria": "Acesso à Justiça e Combate às Desigualdades", "estado": "RJ", "municipio": "Rio de Janeiro" }, "geometry": { "type": "Point", "coordinates": [ -43.4786992, -22.8706658 ] } },
{ "type": "Feature", "properties": { "nome_acao": "NÓS POR ELES", "nome_comunidade": "Associação da Paz", "localidade": "Ananindeua, Pará, Brasil", "organizacao": "ALIEB", "categoria": "Acesso à Justiça e Combate às Desigualdades", "estado": "PA", "municipio": "Ananindeua" }, "geometry": { "type": "Point", "coordinates": [ -48.401662, -1.374035 ] } },
{ "type": "Feature", "properties": { "nome_acao": "Sustentabilidade e educação ambiental", "nome_comunidade": "Alto José do Pinho", "localidade": "Bar do João, Alto Jose Do Pinho, Recife, Pernambuco 52210, Brasil", "organizacao": "Alto sustentável", "categoria": "Planejamento Urbano, Gestão de Riscos e Responsabilidade Climática", "estado": "PE", "municipio": "Recife" }, "geometry": { "type": "Point", "coordinates": [ -34.90867, -8.021232 ] } },
{ "type": "Feature", "properties": { "nome_acao": "Quem AMA cuida!", "nome_comunidade": "Habitacional de moradia popular, Nova Vila Claudete", "localidade": "Cabo de Santo Agostinho, Pernambuco, Brasil", "organizacao": "AMA PERNAMBUCO", "categoria": "Soberania Alimentar e Nutricional", "estado": "PE", "municipio": "Cabo de Santo Agostinho" }, "geometry": { "type": "Point", "coordinates": [ -35.032098, -8.283894 ] } },
{ "type": "Feature", "properties": { "nome_acao": "Placemaking jardimrosaspa", "nome_comunidade": "Amigos do jardimrosaspa", "localidade": "Rua Bela, São José, São Pedro da Aldeia - Rio de Janeiro, 28940-000, Brasil", "organizacao": "Amigos do jardimrosaspa", "categoria": "Planejamento Urbano, Gestão de Riscos e Responsabilidade Climática", "estado": "RJ", "municipio": "São Pedro da Aldeia" }, "geometry": { "type": "Point", "coordinates": [ -42.097616, -22.8289679 ] } },
{ "type": "Feature", "properties": { "nome_acao": "Amora Balaio Criativo", "nome_comunidade": "Jardim Bom Pastor", "localidade": "Rua Sebastião Pedroso, Jardim Bom Pastor, Santo André - São Paulo, 09051, Brasil", "organizacao": "Amora Balaio Criativo e Espaço Cultural Circo do Asfalto", "categoria": "Cultura e Memória", "estado": "SP", "municipio": "São Paulo" }, "geometry": { "type": "Point", "coordinates": [ -46.5533636, -23.6803521 ] } },
{ "type": "Feature", "properties": { "nome_acao": "AMPAC – Associação de Mãe, Pai, Adolescente do Coque.", "nome_comunidade": "Coque", "localidade": "Rua Catalão 92, Recantus, Belford Roxo - Rio de Janeiro, 26163-340, Brasil", "organizacao": "AMPAC – Associação de Mãe, Pai, Adolescente do Coque.", "categoria": "Comunicação, Inclusão Digital e Educação Popular", "estado": "PE", "municipio": "Recife" }, "geometry": { "type": "Point", "coordinates": [ -43.392161, -22.718132 ] } },
{ "type": "Feature", "properties": { "nome_acao": "AMUTAM", "nome_comunidade": "TAMOIOS, SEGUNDAO DISTRITO DE CABO FRIOA", "localidade": "Rua Cabo Frio 30, Cabo Frio - Rio de Janeiro, 28927-000, Brasil", "organizacao": "AMUTAM- ASSOCIAÇÃO DAS MULHERES DE TAMOIOS", "categoria": "Acesso à Justiça e Combate às Desigualdades", "estado": "RJ", "municipio": "Cabo Frio" }, "geometry": { "type": "Point", "coordinates": [ -42.004811, -22.619173 ] } },
{ "type": "Feature", "properties": { "nome_acao": "Kizomba da maloca", "nome_comunidade": "Quilombo urbano Maloca", "localidade": "Aracaju, Sergipe, Brasil", "organizacao": "Áxó BÁRÁ", "categoria": "Cultura e Memória", "estado": "SE", "municipio": "Aracaju" }, "geometry": { "type": "Point", "coordinates": [ -37.077466, -10.916206 ] } },
{ "type": "Feature", "properties": { "nome_acao": "Descanse O Gatilho", "nome_comunidade": "Vila dos Papeleiros", "localidade": "Rua Voluntários Da Pátria 1856, Floresta, Porto Alegre - Rio Grande do Sul, 90230-011, Brasil", "organizacao": "Arca Sete produções e Eventos", "categoria": "Acesso à Justiça e Combate às Desigualdades", "estado": "RS", "municipio": "Porto Alegre" }, "geometry": { "type": "Point", "coordinates": [ -51.212977, -30.016652 ] } },
{ "type": "Feature", "properties": { "nome_acao": "Arte Ocupa", "nome_comunidade": "Mossoró", "localidade": "Beco Mossoro, Petrópolis, Manaus - Amazonas, 69063-000, Brasil", "organizacao": "Arte Ocupa", "categoria": "Cultura e Memória", "estado": "AM", "municipio": "Manaus" }, "geometry": { "type": "Point", "coordinates": [ -59.999886, -3.1105917 ] } },
{ "type": "Feature", "properties": { "nome_acao": "Sarau invisíveis em evidências.hiphop", "nome_comunidade": "Bairro Porto . Favela coqueiral", "localidade": "Aracaju, Sergipe, Brasil", "organizacao": "invisíveis em evidências hip Hop.", "categoria": "Comunicação, Inclusão Digital e Educação Popular", "estado": "SE", "municipio": "Aracaju" }, "geometry": { "type": "Point", "coordinates": [ -37.077466, -10.916206 ] } },
{ "type": "Feature", "properties": { "nome_acao": "ARTISTAS CANHOTOS", "nome_comunidade": "FAG NOR E GOJ JUR localizada junto a Estação Rodoviária e junto ao parque da EFRICA, ambos em Passo Fundo", "localidade": "Passo Fundo, Rio Grande do Sul, Brasil", "organizacao": "ARTISTAS CANHOTOS", "categoria": "Acesso à Justiça e Combate às Desigualdades", "estado": "RS", "municipio": "Passo Fundo" }, "geometry": { "type": "Point", "coordinates": [ -52.396661, -28.25506 ] } },
{ "type": "Feature", "properties": { "nome_acao": "Memorias vivas das (o) mestre da cultura popular", "nome_comunidade": "Comunidade Territorial quilombola Crioulo", "localidade": "Lagarto, Sergipe, Brasil", "organizacao": "Associação  Territorial Quilombolas Mestre Primo", "categoria": "Soberania Alimentar e Nutricional", "estado": "SE", "municipio": "Lagarto" }, "geometry": { "type": "Point", "coordinates": [ -37.671531, -10.914179 ] } },
{ "type": "Feature", "properties": { "nome_acao": "Associação Ação  Periferica", "nome_comunidade": "Sociedade cultural e beneficente 28 de Setembro", "localidade": "Rua Machado De Assis 112, Sorocaba - São Paulo, 18035270, Brasil", "organizacao": "Associação Ação Periferica", "categoria": "Comunicação, Inclusão Digital e Educação Popular", "estado": "SP", "municipio": "Sorocaba" }, "geometry": { "type": "Point", "coordinates": [ -47.459394, -23.503757 ] } },
{ "type": "Feature", "properties": { "nome_acao": "Portal Pau da Lima", "nome_comunidade": "Pau da Lima e São Marcos", "localidade": "Salvador, Bahia, Brasil", "organizacao": "***", "categoria": "Comunicação, Inclusão Digital e Educação Popular", "estado": "BA", "municipio": "Salvador" }, "geometry": { "type": "Point", "coordinates": [ -38.481277, -12.98225 ] } },
{ "type": "Feature", "properties": { "nome_acao": "São Mateus em Movimento", "nome_comunidade": "Vila Flávia - São Mateus", "localidade": "Rua Cônego José Maria Fernandes 127c, São Paulo - São Paulo, 03960-040, Brasil", "organizacao": "ASSOCIACAO CENTRO DE ARTE EDUCACAO SAO MATEUS EM MOVIMENTO", "categoria": "Comunicação, Inclusão Digital e Educação Popular", "estado": "SP", "municipio": "São Paulo" }, "geometry": { "type": "Point", "coordinates": [ -46.482155, -23.594124 ] } },
{ "type": "Feature", "properties": { "nome_acao": "Associação Círculo Laranja", "nome_comunidade": "Grande Méier", "localidade": "Rua Álvares Cabral 505, Cachambi, Rio de Janeiro - Rio de Janeiro, 20780, Brasil", "organizacao": "Associação Círculo Laranja", "categoria": "Acesso à Justiça e Combate às Desigualdades", "estado": "RJ", "municipio": "Rio de Janeiro" }, "geometry": { "type": "Point", "coordinates": [ -43.27078, -22.8926 ] } },
{ "type": "Feature", "properties": { "nome_acao": "Agência de Notícias das Favelas- ANF", "nome_comunidade": "Bairro da Paz", "localidade": "Salvador, Bahia, Brasil", "organizacao": "Agência de Notícias das Favelas- ANF", "categoria": "Comunicação, Inclusão Digital e Educação Popular", "estado": "BA", "municipio": "Salvador" }, "geometry": { "type": "Point", "coordinates": [ -38.481277, -12.98225 ] } },
{ "type": "Feature", "properties": { "nome_acao": "Projeto Caminho da Paz", "nome_comunidade": "Bairro da paz", "localidade": "Salvador, Bahia, Brasil", "organizacao": "Projeto Caminho da Paz", "categoria": "Saúde Integral e Dignidade Humana", "estado": "BA", "municipio": "Salvador" }, "geometry": { "type": "Point", "coordinates": [ -38.481277, -12.98225 ] } },
{ "type": "Feature", "properties": { "nome_acao": "Associação Comunitária sociocultural da Picada", "nome_comunidade": "Picadas", "localidade": "Comunidade Picada Ipanguaçu - Rio Grande do Norte, Brasil", "organizacao": "Associação Comunitária sociocultural da Picada", "categoria": "Soberania Alimentar e Nutricional", "estado": "RN", "municipio": "Ipanguaçu" }, "geometry": { "type": "Point", "coordinates": [ -36.799315, -5.526425 ] } },
{ "type": "Feature", "properties": { "nome_acao": "Mãos que Criam", "nome_comunidade": "Urucânia", "localidade": "Paciência, 23066, Rio de Janeiro, Rio de Janeiro, Brasil", "organizacao": "Associação Conquista Social", "categoria": "Economia Solidária", "estado": "RJ", "municipio": "Rio de Janeiro" }, "geometry": { "type": "Point", "coordinates": [ -43.637, -22.8987 ] } },
{ "type": "Feature", "properties": { "nome_acao": "Associação Cultural Afoxé Omõrisá Odè", "nome_comunidade": "Granja Lisboa", "localidade": "Rua Geraldo Barbosa, Granja Lisboa, Fortaleza - Ceará, 60543-335, Brasil", "organizacao": "Associação Cultural Afoxé Omõrisá Odè", "categoria": "Cultura e Memória", "estado": "CE", "municipio": "Fortaleza" }, "geometry": { "type": "Point", "coordinates": [ -38.6093137, -3.7894935 ] } },
{ "type": "Feature", "properties": { "nome_acao": "Rede Madureira Criativa", "nome_comunidade": "Serrinha, congonha , são José, cajueiro", "localidade": "Rua João Pereira 61, Madureira, Rio de Janeiro - Rio de Janeiro, 21350, Brasil", "organizacao": "Associação Cultural Companhia de Aruanda", "categoria": "Comunicação, Inclusão Digital e Educação Popular", "estado": "RJ", "municipio": "Rio de Janeiro" }, "geometry": { "type": "Point", "coordinates": [ -43.334403, -22.875008 ] } },
{ "type": "Feature", "properties": { "nome_acao": "Celeiro de Bambas", "nome_comunidade": "Beirinha", "localidade": "Rua Senador Thomaz Lobo, Areias, Recife - Pernambuco, 50860, Brasil", "organizacao": "Associação Cultural Desportiva Celeiro de Bambas", "categoria": "Acesso à Justiça e Combate às Desigualdades", "estado": "PE", "municipio": "Recife" }, "geometry": { "type": "Point", "coordinates": [ -34.923876, -8.0977962 ] } },
{ "type": "Feature", "properties": { "nome_acao": "Casa do Beco", "nome_comunidade": "Morro do Papagaio/Aglomerado Santa Lúcia", "localidade": "Avenida Artur Bernardes 3876, Vila Barragem Santa Lúcia, Belo Horizonte - Minas Gerais, 30335-790, Brasil", "organizacao": "Associação Cultural do Grupo do Beco", "categoria": "Cultura e Memória", "estado": "MG", "municipio": "Belo Horizonte" }, "geometry": { "type": "Point", "coordinates": [ -43.945235, -19.95172 ] } },
{ "type": "Feature", "properties": { "nome_acao": "ACEESCULT- ASSOCIAÇÃO DE CIDADÃOS POR MAIS EDUCAÇÃO ESPORTE SAÚDE CULTURA E LAZER EM TIMON", "nome_comunidade": "ACEESCULT", "localidade": "Timon, Maranhão, Brasil", "organizacao": "ACEESCULT", "categoria": "Economia Solidária", "estado": "MA", "municipio": "Timon" }, "geometry": { "type": "Point", "coordinates": [ -42.844952, -5.102332 ] } },
{ "type": "Feature", "properties": { "nome_acao": "Inclusão social através do esporte a sociabilidade URBANA,, em um bairro centenário  periférico, com criancas, jovens e adultos.", "nome_comunidade": "BAIRRO Getúlio Vargas.", "localidade": "Rio Grande, Rio Grande do Sul, Brasil", "organizacao": "Associação cultural recreativa esportiva BGV-FC", "categoria": "Comunicação, Inclusão Digital e Educação Popular", "estado": "RS", "municipio": "Rio Grande" }, "geometry": { "type": "Point", "coordinates": [ -52.09913, -32.033425 ] } },
{ "type": "Feature", "properties": { "nome_acao": "Associação Cultural Todos Podem", "nome_comunidade": "Valparaíso, km 14, Ibituba, Bananal", "localidade": "Baixo Guandu, Espírito Santo, Brasil", "organizacao": "Associação Cultural Todos Podem", "categoria": "Economia Solidária", "estado": "ES", "municipio": "Baixo Guandu" }, "geometry": { "type": "Point", "coordinates": [ -41.018209, -19.513832 ] } },
{ "type": "Feature", "properties": { "nome_acao": "Reforço Escola Afrocentrado e Tambores da Maloca", "nome_comunidade": "Comunidade Maloca", "localidade": "Travessa Comunidade Da Maloca, Getúlio Vargas, Aracaju - Sergipe, 48055, Brasil", "organizacao": "Associação da Comunidade Quilombo Maloca", "categoria": "Cultura e Memória", "estado": "SE", "municipio": "Aracaju" }, "geometry": { "type": "Point", "coordinates": [ -37.0608558, -10.9132983 ] } },
{ "type": "Feature", "properties": { "nome_acao": "Capoeira Angola - Associação de Capoeira Angola Zumbi dos Palmares", "nome_comunidade": "Mato Sampaio", "localidade": "Rua Oito 200, Bom Jesus, Porto Alegre - Rio Grande do Sul, 91420-000, Brasil", "organizacao": "Associação de Capoeira Angola Zumbi dos Palmares", "categoria": "Cultura e Memória", "estado": "RS", "municipio": "Porto Alegre" }, "geometry": { "type": "Point", "coordinates": [ -51.161322, -30.051037 ] } },
{ "type": "Feature", "properties": { "nome_acao": "Arena 44", "nome_comunidade": "Ititioca", "localidade": "Rua Costa Monteiro, Ititioca, Niterói - Rio de Janeiro, 24315-070, Brasil", "organizacao": "Associação de capoeira barravento", "categoria": "Cultura e Memória", "estado": "RJ", "municipio": "Niterói" }, "geometry": { "type": "Point", "coordinates": [ -43.0774615, -22.8955275 ] } },
{ "type": "Feature", "properties": { "nome_acao": "Associação de Capoeira Identidade Cultural (Ponto de Cultura)", "nome_comunidade": "Vila Caxias (complexo de bairros)", "localidade": "Além Paraíba, Minas Gerais, Brasil", "organizacao": "Associação de Capoeira Identidade Cultural (Ponto de Cultura)", "categoria": "Cultura e Memória", "estado": "MG", "municipio": "Além Paraíba" }, "geometry": { "type": "Point", "coordinates": [ -42.681047, -21.876058 ] } },
{ "type": "Feature", "properties": { "nome_acao": "Projeto de capoeira cidadania", "nome_comunidade": "C.h.Roberto Romano", "localidade": "Rua Inácia Pinto De Campo Santa Bárbara d'Oeste - São Paulo, Brasil", "organizacao": "ASSOCIACAO DE CAPOEIRA MOTTA E CULTURA AFRO - ACMCA", "categoria": "Cultura e Memória", "estado": "SP", "municipio": "Santa Bárbara d'Oeste" }, "geometry": { "type": "Point", "coordinates": [ -47.4181858, -22.7754347 ] } },
{ "type": "Feature", "properties": { "nome_acao": "A Casa de Bambas", "nome_comunidade": "Cidade Alta", "localidade": "Estrada Do Porto Velho 199, Cordovil, Rio de Janeiro - Rio de Janeiro, 21012, Brasil", "organizacao": "Associação de Cultura e Artes Casa de Bambas", "categoria": "Cultura e Memória", "estado": "RJ", "municipio": "Rio de Janeiro" }, "geometry": { "type": "Point", "coordinates": [ -43.294346, -22.822466 ] } },
{ "type": "Feature", "properties": { "nome_acao": "A importância da Atividades Físico em Pacientes Diabéticos e Hipertensos.", "nome_comunidade": "Ferro aço", "localidade": "Rua Santa Terezinha Alagoinhas - Bahia, 48000-000, Brasil", "organizacao": "Associação de Diabéticos de Alagoinhas", "categoria": "Saúde Integral e Dignidade Humana", "estado": "BA", "municipio": "Alagoinhas" }, "geometry": { "type": "Point", "coordinates": [ -38.4198766, -12.115681 ] } },
{ "type": "Feature", "properties": { "nome_acao": "Cuidados com saúde, doação de cestas, educação ambiental", "nome_comunidade": "Regiçao Noroeste de Goiânia", "localidade": "Rua I Goiânia - Goiás, 74555-050, Brazil", "organizacao": "Associação de Educação Cultura e Cidadania - ADEC", "categoria": "Saúde Integral e Dignidade Humana", "estado": "GO", "municipio": "Goiânia" }, "geometry": { "type": "Point", "coordinates": [ -49.2831502, -16.6573955 ] } },
{ "type": "Feature", "properties": { "nome_acao": "Conscientização dos populares para Conservação dos recursos naturais para a sustentabilidade entre os mesmos", "nome_comunidade": "Resex Cururupu", "localidade": "Cururupu, Maranhão, Brasil", "organizacao": "Associação de Moradores da Reserva Extrativista Marinha de Cururupu", "categoria": "Acesso à Justiça e Combate às Desigualdades", "estado": "MA", "municipio": "Cururupu" }, "geometry": { "type": "Point", "coordinates": [ -44.872996, -1.824255 ] } },
{ "type": "Feature", "properties": { "nome_acao": "Associação de Moradores da Várzea", "nome_comunidade": "Várzea", "localidade": "Várzea, Recife, Pernambuco 50740, Brasil", "organizacao": "Associação de Moradores da Várzea", "categoria": "Comunicação, Inclusão Digital e Educação Popular", "estado": "PE", "municipio": "Recife" }, "geometry": { "type": "Point", "coordinates": [ -34.953776, -8.039155 ] } },
{ "type": "Feature", "properties": { "nome_acao": "Associação de moradores do aluguel social", "nome_comunidade": "Complexo de Barros filhos", "localidade": "Barros Filho, 21515, Rio de Janeiro, Rio de Janeiro, Brasil", "organizacao": "Associação de moradores do aluguel social.", "categoria": "Planejamento Urbano, Gestão de Riscos e Responsabilidade Climática", "estado": "RJ", "municipio": "Rio de Janeiro" }, "geometry": { "type": "Point", "coordinates": [ -43.3632, -22.8349 ] } },
{ "type": "Feature", "properties": { "nome_acao": "Associação de Moradores do Parque São Jorge", "nome_comunidade": "Parque São Jorge", "localidade": "Cuiabá, Mato Grosso, Brasil", "organizacao": "Associação de Moradores do Parque São Jorge", "categoria": "Planejamento Urbano, Gestão de Riscos e Responsabilidade Climática", "estado": "MT", "municipio": "Cuiabá" }, "geometry": { "type": "Point", "coordinates": [ -56.09913, -15.598669 ] } },
{ "type": "Feature", "properties": { "nome_acao": "ACEESCULT- ASSOCIAÇÃO DE CIDADÃOS POR MAIS EDUCAÇÃO ESPORTE SAÚDE CULTURA E LAZER EM TIMON", "nome_comunidade": "Mutirão", "localidade": "Timon, Maranhão, Brasil", "organizacao": "ACEESCULT", "categoria": "Acesso à Justiça e Combate às Desigualdades", "estado": "MA", "municipio": "Timon" }, "geometry": { "type": "Point", "coordinates": [ -42.844952, -5.102332 ] } },
{ "type": "Feature", "properties": { "nome_acao": "Associação de Moradores e Pescadores de Odilandia e Mamuaba", "nome_comunidade": "Odilandia", "localidade": "Rua Professor Luiz Porto Santa Rita - Paraíba, Brasil", "organizacao": "Associaçao de Moradores e Pescadortes de Odilandia e Mamuaba", "categoria": "Economia Solidária", "estado": "PB", "municipio": "Santa Rita" }, "geometry": { "type": "Point", "coordinates": [ -34.9808395, -7.1227965 ] } },
{ "type": "Feature", "properties": { "nome_acao": "Projeto Horta Comunitária Parque Douat", "nome_comunidade": "Loteamento Parque Douat", "localidade": "Rua Maria Alves Ferreira, Costa E Silva, Joinville - Santa Catarina, Brasil", "organizacao": "Associação de Moradores Parque Douat", "categoria": "Soberania Alimentar e Nutricional", "estado": "SC", "municipio": "Joinville" }, "geometry": { "type": "Point", "coordinates": [ -48.8943118, -26.2671294 ] } },
{ "type": "Feature", "properties": { "nome_acao": "Batalha do Tanque em São Gonçalo", "nome_comunidade": "Morro do Feijão", "localidade": "São Gonçalo, Rio de Janeiro, Brasil", "organizacao": "Batalha do Tanque em São Gonçalo", "categoria": "Cultura e Memória", "estado": "RJ", "municipio": "São Gonçalo" }, "geometry": { "type": "Point", "coordinates": [ -43.030925, -22.821901 ] } },
{ "type": "Feature", "properties": { "nome_acao": "Associação de Mulheres Tomeaçuense-AMT (Promoção de politicas publicas para mulheres em vulnerabilidade social.", "nome_comunidade": "Desenvolvemos em Bairros da Zona Urbana e do Campo", "localidade": "Tomé-Açu, Pará, Brasil", "organizacao": "Associação de Mulheres Toméaçuense-AMT", "categoria": "Acesso à Justiça e Combate às Desigualdades", "estado": "PA", "municipio": "Tomé-Açu" }, "geometry": { "type": "Point", "coordinates": [ -48.152291, -2.416631 ] } },
{ "type": "Feature", "properties": { "nome_acao": "Cozinha Solidária do Bairro Farrapos", "nome_comunidade": "Bairro Farrapos", "localidade": "Rua Frederico Mentz 460, Farrapos, Porto Alegre - Rio Grande do Sul, 90240-110, Brasil", "organizacao": "Associação DESABAFA", "categoria": "Soberania Alimentar e Nutricional", "estado": "RS", "municipio": "Porto Alegre" }, "geometry": { "type": "Point", "coordinates": [ -51.199236, -29.98733 ] } },
{ "type": "Feature", "properties": { "nome_acao": "Feira Integrada de São Gonçalo", "nome_comunidade": "Feira Integrada de São Gonçalo- FISG", "localidade": "São Gonçalo, Rio de Janeiro, Brasil", "organizacao": "Feira Integrada de São Gonçalo", "categoria": "Cultura e Memória", "estado": "RJ", "municipio": "São Gonçalo" }, "geometry": { "type": "Point", "coordinates": [ -43.030925, -22.821901 ] } },
{ "type": "Feature", "properties": { "nome_acao": "Associação Distrital de Skate", "nome_comunidade": "Ceilândia", "localidade": "Qnm 14 Brasília - Distrito Federal, 72210, Brasil", "organizacao": "Associação Distrital de Skate", "categoria": "Cultura e Memória", "estado": "DF", "municipio": "Ceilândia" }, "geometry": { "type": "Point", "coordinates": [ -48.107366, -15.8121712 ] } },
{ "type": "Feature", "properties": { "nome_acao": "Criando associação", "nome_comunidade": "Jacaré", "localidade": "Cabedelo, Paraíba, Brasil", "organizacao": "Associação dos guardadores de carro e vendedores passeios do por do sol do jacaré", "categoria": "Economia Solidária", "estado": "PB", "municipio": "Cabedelo" }, "geometry": { "type": "Point", "coordinates": [ -34.835161, -6.97324 ] } },
{ "type": "Feature", "properties": { "nome_acao": "Cursos profissionalizante", "nome_comunidade": "Alto José do Pinho", "localidade": "Alto José Do Pinho, 52210, Recife, Pernambuco, Brasil", "organizacao": "Associação dos moradores da vila do escailabe", "categoria": "Saúde Integral e Dignidade Humana", "estado": "PE", "municipio": "Recife" }, "geometry": { "type": "Point", "coordinates": [ -34.9081, -8.0213 ] } },
{ "type": "Feature", "properties": { "nome_acao": "Associação dos moradores do curió", "nome_comunidade": "Curió sapiranga", "localidade": "Fortaleza, Ceará, Brasil", "organizacao": "Associação dos moradores do curió", "categoria": "Cultura e Memória", "estado": "CE", "municipio": "Fortaleza" }, "geometry": { "type": "Point", "coordinates": [ -38.521799, -3.730451 ] } },
{ "type": "Feature", "properties": { "nome_acao": "Oficinas de Artesanato", "nome_comunidade": "Serginho Ponte e Lava-pés", "localidade": "Baependi, Minas Gerais, Brasil", "organizacao": "Associação dos Produtores Artesanais de Baependi", "categoria": "Cultura e Memória", "estado": "MG", "municipio": "Baependi" }, "geometry": { "type": "Point", "coordinates": [ -44.889925, -21.959162 ] } },
{ "type": "Feature", "properties": { "nome_acao": "Ocupação Porangaba - Associação Terra Prometida", "nome_comunidade": "Ocupação Porangaba", "localidade": "Estrada Vicinal José Riul Jardinópolis - São Paulo, Brasil", "organizacao": "Associação e Movimento Terra Prometida - AMTP", "categoria": "Economia Solidária", "estado": "SP", "municipio": "Jardinópolis" }, "geometry": { "type": "Point", "coordinates": [ -47.7561769, -21.04378 ] } },
{ "type": "Feature", "properties": { "nome_acao": "ASSOCIAÇÃO EMPREENDEDORAS RESTINGA", "nome_comunidade": "RESTINGA", "localidade": "Estrada Barro Vermelho, Restinga, Porto Alegre - Rio Grande do Sul, 91790-100, Brasil", "organizacao": "ASSOCIAÇÃO EMPREENDEDORAS RESTINGA", "categoria": "Economia Solidária", "estado": "RS", "municipio": "Porto Alegre" }, "geometry": { "type": "Point", "coordinates": [ -51.1408437, -30.1637667 ] } },
{ "type": "Feature", "properties": { "nome_acao": "Mentoria para empreendedores de comunidade", "nome_comunidade": "Neves, caramujo", "localidade": "Niterói, Rio de Janeiro, Brasil", "organizacao": "***", "categoria": "Economia Solidária", "estado": "RJ", "municipio": "Niterói" }, "geometry": { "type": "Point", "coordinates": [ -43.115455, -22.883237 ] } },
{ "type": "Feature", "properties": { "nome_acao": "Associação Esportiva e Cultural 100zala", "nome_comunidade": "São Miguel Paulista", "localidade": "Rua Clarice Bueno De Miranda São Paulo - São Paulo, 08042-100, Brasil", "organizacao": "Associação Esportiva e Cultural 100zala e Coletivo Afrocriativas", "categoria": "Cultura e Memória", "estado": "SP", "municipio": "São Paulo" }, "geometry": { "type": "Point", "coordinates": [ -46.437609, -23.5096977 ] } },
{ "type": "Feature", "properties": { "nome_acao": "Projeto Jovens Comunicadores", "nome_comunidade": "Caramujo; Morro do Estado", "localidade": "Niterói, Rio de Janeiro, Brasil", "organizacao": "Associação Experimental de Mídia Comunitária - BEMTV", "categoria": "Comunicação, Inclusão Digital e Educação Popular", "estado": "RJ", "municipio": "Niterói" }, "geometry": { "type": "Point", "coordinates": [ -43.115455, -22.883237 ] } },
{ "type": "Feature", "properties": { "nome_acao": "PLANO POPULAR PARA O FUTURO MELHOR", "nome_comunidade": "Comunidade Futuro Melhor", "localidade": "Rua Gervásio Leite Rebelo São Paulo - São Paulo, 00000-000, Brasil", "organizacao": "Associação Futuro Melhor", "categoria": "Comunicação, Inclusão Digital e Educação Popular", "estado": "SP", "municipio": "São Paulo" }, "geometry": { "type": "Point", "coordinates": [ -46.6729083, -23.4534433 ] } },
{ "type": "Feature", "properties": { "nome_acao": "Associação Gris Espaço Solidario", "nome_comunidade": "Vila Arraes", "localidade": "Rua Diogo Barbosa Machado, Várzea, Recife - Pernambuco, 50810, Brasil", "organizacao": "Associação Gris Espaço Solidário", "categoria": "Acesso à Justiça e Combate às Desigualdades", "estado": "PE", "municipio": "Recife" }, "geometry": { "type": "Point", "coordinates": [ -34.9599824, -8.0425735 ] } },
{ "type": "Feature", "properties": { "nome_acao": "Esporte  (Badminton)", "nome_comunidade": "Bairro Santa Terezinha", "localidade": "Guarabira, Paraíba, Brasil", "organizacao": "Associação Guarabirense de Badminton", "categoria": "Cultura e Memória", "estado": "PB", "municipio": "Guarabira" }, "geometry": { "type": "Point", "coordinates": [ -35.491558, -6.851398 ] } },
{ "type": "Feature", "properties": { "nome_acao": "Conexão de rua", "nome_comunidade": "Nova cidade", "localidade": "Rua Palmas, Nova Cidade, Boa Vista - Roraima, Brasil", "organizacao": "Associação Jovem Plugadão", "categoria": "Comunicação, Inclusão Digital e Educação Popular", "estado": "RR", "municipio": "Boa Vista" }, "geometry": { "type": "Point", "coordinates": [ -60.7323311, 2.7614447 ] } },
{ "type": "Feature", "properties": { "nome_acao": "Lutadores da Fé", "nome_comunidade": "Zumbi e Porto Novo", "localidade": "Porto Novo, 24435, Neves, São Gonçalo, Rio de Janeiro, Brasil", "organizacao": "Associação Lutadores da fé", "categoria": "Acesso à Justiça e Combate às Desigualdades", "estado": "RJ", "municipio": "São Gonçalo" }, "geometry": { "type": "Point", "coordinates": [ -43.0754, -22.8229 ] } },
{ "type": "Feature", "properties": { "nome_acao": "Casa das Artes", "nome_comunidade": "Santa Luzia", "localidade": "Canindé, Ceará, Brasil", "organizacao": "Associação Marias de arte, cultura, educação esporte e cidadania", "categoria": "Comunicação, Inclusão Digital e Educação Popular", "estado": "CE", "municipio": "Canindé" }, "geometry": { "type": "Point", "coordinates": [ -39.310852, -4.354795 ] } },
{ "type": "Feature", "properties": { "nome_acao": "Movimento xondariakuery jera rete", "nome_comunidade": "Kuaray haxa", "localidade": "Paraná, Brasil", "organizacao": "Associação mbya kuaray haxa", "categoria": "Acesso à Justiça e Combate às Desigualdades", "estado": "PR", "municipio": "Antonina" }, "geometry": { "type": "Point", "coordinates": [ -51.631760530900003, -24.4313372628 ] } },
{ "type": "Feature", "properties": { "nome_acao": "Associação Nossa Casa Mãe África Estudos e Comunicação", "nome_comunidade": "Granja Lisboa", "localidade": "Rua Medelim, Granja Lisboa, Fortaleza - Ceará, 60540-000, Brasil", "organizacao": "Associação Nossa Casa Mãe África Estudos e Comunicação", "categoria": "Planejamento Urbano, Gestão de Riscos e Responsabilidade Climática", "estado": "CE", "municipio": "Fortaleza" }, "geometry": { "type": "Point", "coordinates": [ -38.629793066200001, -3.7915581 ] } },
{ "type": "Feature", "properties": { "nome_acao": "Organização Social sem fins lucrativos", "nome_comunidade": "Conj.PAAR", "localidade": "Rua Rio Xingu Ananindeua - Pará, 67154-062, Brasil", "organizacao": "Associação Sociocultural Shalon", "categoria": "Soberania Alimentar e Nutricional", "estado": "PA", "municipio": "Ananindeua" }, "geometry": { "type": "Point", "coordinates": [ -48.3932315, -1.335071 ] } },
{ "type": "Feature", "properties": { "nome_acao": "ONG TODOS NÓS", "nome_comunidade": "Engenheiro Pedreira-Japeri", "localidade": "Marajoara, 26413, Japeri, Rio de Janeiro, Brasil", "organizacao": "Associação Todos Nós", "categoria": "Cultura e Memória", "estado": "RJ", "municipio": "Japeri" }, "geometry": { "type": "Point", "coordinates": [ -43.62, -22.7 ] } },
{ "type": "Feature", "properties": { "nome_acao": "Garagens Periféricas", "nome_comunidade": "Garagens residenciais na poesia de grandes cidades e cidades pequenas do interior do Brasil", "localidade": "Rua Frei Orlando 148, Santo André, Belo Horizonte - Minas Gerais, 31230-120, Brasil", "organizacao": "Ateliê Titetê", "categoria": "Cultura e Memória", "estado": "MG", "municipio": "Belo Horizonte" }, "geometry": { "type": "Point", "coordinates": [ -43.957627, -19.904239 ] } },
{ "type": "Feature", "properties": { "nome_acao": "Autonomia ZN", "nome_comunidade": "´Jardim Filhos da Terra", "localidade": "Travessa Igarapé Progresso São Paulo - São Paulo, 02325-070, Brasil", "organizacao": "Autonomia ZN", "categoria": "Planejamento Urbano, Gestão de Riscos e Responsabilidade Climática", "estado": "SP", "municipio": "São Paulo" }, "geometry": { "type": "Point", "coordinates": [ -46.5848151, -23.4563016 ] } },
{ "type": "Feature", "properties": { "nome_acao": "Projeto Ambientes", "nome_comunidade": "Zona norte de Niterói", "localidade": "Niterói, Rio de Janeiro, Brasil", "organizacao": "Rede Clima, Água, Sustentabilidade e Segurança Alimentar Brasil", "categoria": "Comunicação, Inclusão Digital e Educação Popular", "estado": "RJ", "municipio": "Niterói" }, "geometry": { "type": "Point", "coordinates": [ -43.115455, -22.883237 ] } },
{ "type": "Feature", "properties": { "nome_acao": "Afro Memórias Atuais", "nome_comunidade": "Zona oeste", "localidade": "Rio de Janeiro, Rio de Janeiro, Brasil", "organizacao": "Afro Memórias Atuais", "categoria": "Acesso à Justiça e Combate às Desigualdades", "estado": "RJ", "municipio": "Rio de Janeiro" }, "geometry": { "type": "Point", "coordinates": [ -43.209373, -22.911014 ] } },
{ "type": "Feature", "properties": { "nome_acao": "Batalha do Recanto", "nome_comunidade": "Batalha do Recanto", "localidade": "Rua Elvis Presley, Alcântara, São Gonçalo - Rio de Janeiro, 24710-810, Brasil", "organizacao": "Batalha do Recanto", "categoria": "Cultura e Memória", "estado": "RJ", "municipio": "São Gonçalo" }, "geometry": { "type": "Point", "coordinates": [ -43.0039052, -22.8182105 ] } },
{ "type": "Feature", "properties": { "nome_acao": "ANF - Agência de Notícias das Favelas", "nome_comunidade": "Várias", "localidade": "Rio de Janeiro, Rio de Janeiro, Brasil", "organizacao": "ANF -  Agência de Notícias das Favelas", "categoria": "Comunicação, Inclusão Digital e Educação Popular", "estado": "RJ", "municipio": "Rio de Janeiro" }, "geometry": { "type": "Point", "coordinates": [ -43.209373, -22.911014 ] } },
{ "type": "Feature", "properties": { "nome_acao": "BIBLIOPONG", "nome_comunidade": "Redonda", "localidade": "Icapuí, Ceará, Brasil", "organizacao": "BIBLIOPONG", "categoria": "Cultura e Memória", "estado": "CE", "municipio": "Icapuí" }, "geometry": { "type": "Point", "coordinates": [ -37.353537, -4.715847 ] } },
{ "type": "Feature", "properties": { "nome_acao": "Cultura Periferica", "nome_comunidade": "Chapadão", "localidade": "Anchieta, 21645, Rio de Janeiro, Rio de Janeiro, Brasil", "organizacao": "BibliotecaAmarela", "categoria": "Acesso à Justiça e Combate às Desigualdades", "estado": "RJ", "municipio": "Rio de Janeiro" }, "geometry": { "type": "Point", "coordinates": [ -43.3991, -22.8232 ] } },
{ "type": "Feature", "properties": { "nome_acao": "Boca do Rio Magazine", "nome_comunidade": "Boca do Rio", "localidade": "Rua Hélio Machado Salvador - Bahia, 41710-200, Brasil", "organizacao": "Boca do Rio Magazine, do Coletivo Rede Midicom", "categoria": "Comunicação, Inclusão Digital e Educação Popular", "estado": "BA", "municipio": "Salvador" }, "geometry": { "type": "Point", "coordinates": [ -38.4311221, -12.9781089 ] } },
{ "type": "Feature", "properties": { "nome_acao": "Boi Mandingueiro", "nome_comunidade": "Mata do Ronca Paratibe.", "localidade": "Mata do Ronca, Av. da Recuperação, Paulista, Pernambuco, Brasil", "organizacao": "Boi Mandingueiro", "categoria": "Cultura e Memória", "estado": "PE", "municipio": "Paulista" }, "geometry": { "type": "Point", "coordinates": [ -34.907076, -7.977137 ] } },
{ "type": "Feature", "properties": { "nome_acao": "Rota Cultural Afro Buziana", "nome_comunidade": "Estamos localizados no bairro da Rasa em Búzios RJ. Um dos maiores quilombos do RJ", "localidade": "Praia Rasa, Pr. Rasa, Armação dos Búzios, Rio de Janeiro, Brasil", "organizacao": "Bonecas Negras", "categoria": "Economia Solidária", "estado": "RJ", "municipio": "Armação dos Búzios" }, "geometry": { "type": "Point", "coordinates": [ -41.945393, -22.755248 ] } },
{ "type": "Feature", "properties": { "nome_acao": "Maternidade Romantizada", "nome_comunidade": "Vila Gaúcha", "localidade": "Rua Dona Maria 195, Santa Teresa, Porto Alegre - Rio Grande do Sul, 90850-280, Brasil", "organizacao": "BravamenteFortes", "categoria": "Comunicação, Inclusão Digital e Educação Popular", "estado": "RS", "municipio": "Porto Alegre" }, "geometry": { "type": "Point", "coordinates": [ -51.232156, -30.071273 ] } },
{ "type": "Feature", "properties": { "nome_acao": "Encontro popular: O Bairro é Nosso!", "nome_comunidade": "Conjuntos João de Barro e Santa Felicidade", "localidade": "Conjunto João De Barro I, Maringá, Paraná, Brasil", "organizacao": "Brcidades Núcleo Maringá", "categoria": "Planejamento Urbano, Gestão de Riscos e Responsabilidade Climática", "estado": "PR", "municipio": "Maringá" }, "geometry": { "type": "Point", "coordinates": [ -51.930617, -23.458112 ] } },
{ "type": "Feature", "properties": { "nome_acao": "Brincantes Sonoros", "nome_comunidade": "Grande Bom Jardim", "localidade": "Rua Oscar França, Bom Jardim, Fortaleza - Ceará, 60543-366, Brasil", "organizacao": "Brincantes Sonoros", "categoria": "Cultura e Memória", "estado": "CE", "municipio": "Fortaleza" }, "geometry": { "type": "Point", "coordinates": [ -38.6068703, -3.7895785 ] } },
{ "type": "Feature", "properties": { "nome_acao": "Artes nas favelas", "nome_comunidade": "Chapadao", "localidade": "Rio de Janeiro, Rio de Janeiro, Brasil", "organizacao": "Artes nas favelas", "categoria": "Economia Solidária", "estado": "RJ", "municipio": "Rio de Janeiro" }, "geometry": { "type": "Point", "coordinates": [ -43.209373, -22.911014 ] } },
{ "type": "Feature", "properties": { "nome_acao": "grupo Afrolaje", "nome_comunidade": "Praça Agripino Grieco", "localidade": "Rio de Janeiro, Rio de Janeiro, Brasil", "organizacao": "associação cultural grupo afrolaje", "categoria": "Cultura e Memória", "estado": "RJ", "municipio": "Rio de Janeiro" }, "geometry": { "type": "Point", "coordinates": [ -43.209373, -22.911014 ] } },
{ "type": "Feature", "properties": { "nome_acao": "Feiras de Empreendedorismo Comunitário", "nome_comunidade": "UR-7 Várzea", "localidade": "Rua Inaldo Bartolomeu De Carvalho, Várzea, Recife - Pernambuco, 50970, Brasil", "organizacao": "Cabe +1", "categoria": "Economia Solidária", "estado": "PE", "municipio": "Recife" }, "geometry": { "type": "Point", "coordinates": [ -34.9799135, -8.0351322 ] } },
{ "type": "Feature", "properties": { "nome_acao": "Grupo 400MLcrew", "nome_comunidade": "RICARDO DE ALBUQUERQUE", "localidade": "Rio de Janeiro, Rio de Janeiro, Brasil", "organizacao": "Coletivo 400ML CREW", "categoria": "Cultura e Memória", "estado": "RJ", "municipio": "Rio de Janeiro" }, "geometry": { "type": "Point", "coordinates": [ -43.209373, -22.911014 ] } },
{ "type": "Feature", "properties": { "nome_acao": "Ocupação Casa Cultural Hip-Hop Jaçanã", "nome_comunidade": "Jaçanã", "localidade": "Rua Maria Amália Lopes Azevedo São Paulo - São Paulo, 02350-002, Brazil", "organizacao": "Casa Cultural Hip-Hop Jaçanã", "categoria": "Cultura e Memória", "estado": "SP", "municipio": "São Paulo" }, "geometry": { "type": "Point", "coordinates": [ -46.6057637, -23.4581135 ] } },
{ "type": "Feature", "properties": { "nome_acao": "Casa de Pedro e a Sereia - Casa Arte Ponto de Cultura e Residencia Artistica", "nome_comunidade": "RESEX ARAPIRANGA TROMAI - PRAIA DE SÃO EDRO", "localidade": "Carutapera, Maranhão, Brasil", "organizacao": "Casa de Pedro e a Sereia - Casa Arte", "categoria": "Planejamento Urbano, Gestão de Riscos e Responsabilidade Climática", "estado": "MA", "municipio": "Carutapera" }, "geometry": { "type": "Point", "coordinates": [ -46.020562, -1.201664 ] } },
{ "type": "Feature", "properties": { "nome_acao": "Casa Futuro", "nome_comunidade": "Por do Sol", "localidade": "Rua Nelson Mandela 269, Coaçu, Fortaleza - Ceará, 60872-406, Brasil", "organizacao": "Casa Futuro", "categoria": "Acesso à Justiça e Combate às Desigualdades", "estado": "CE", "municipio": "Fortaleza" }, "geometry": { "type": "Point", "coordinates": [ -38.474217, -3.850538 ] } },
{ "type": "Feature", "properties": { "nome_acao": "CCB SOCIAL - Casa da Comunidade do Berardo", "nome_comunidade": "Sítio do Berardo, Jockey Club, Zeppelin, Cardoso,Rua da Lama", "localidade": "Prado, 50720, Recife, Pernambuco, Brasil", "organizacao": "CCB SOCIAL - Casa da Comunidade do Berardo", "categoria": "Acesso à Justiça e Combate às Desigualdades", "estado": "PE", "municipio": "Recife" }, "geometry": { "type": "Point", "coordinates": [ -34.9139, -8.0599 ] } },
{ "type": "Feature", "properties": { "nome_acao": "Fundo de auto gestão comunitário- fapag", "nome_comunidade": "Conjunto palmeiras", "localidade": "Jangurussu, 60865, Messejana, Fortaleza, Ceará, Brasil", "organizacao": "Cearah periferia", "categoria": "Cultura e Memória", "estado": "CE", "municipio": "Fortaleza" }, "geometry": { "type": "Point", "coordinates": [ -38.52, -3.84 ] } },
{ "type": "Feature", "properties": { "nome_acao": "MTD movimento das trabalhadoras e dos trabalhadores por direitos", "nome_comunidade": "Comunidade são Francisco", "localidade": "Matinhas - PB, Matinhas, Paraíba, Brasil", "organizacao": "Cebs comunidade eclesial de base e associação da economia solidária popular", "categoria": "Planejamento Urbano, Gestão de Riscos e Responsabilidade Climática", "estado": "PB", "municipio": "Matinhas" }, "geometry": { "type": "Point", "coordinates": [ -35.7716705, -7.121998 ] } },
{ "type": "Feature", "properties": { "nome_acao": "Reforço escolar", "nome_comunidade": "Conjunto habitacional Marcilio Dias (comunidade Kelson)", "localidade": "Avenida Lôbo Júnior 83, Penha Circular, Rio de Janeiro - Rio de Janeiro, 21012, Brasil", "organizacao": "CECOM", "categoria": "Planejamento Urbano, Gestão de Riscos e Responsabilidade Climática", "estado": "RJ", "municipio": "Rio de Janeiro" }, "geometry": { "type": "Point", "coordinates": [ -43.271349, -22.822452 ] } },
{ "type": "Feature", "properties": { "nome_acao": "Cozinha Solidária do Quilombo da Gamboa", "nome_comunidade": "Quilombo da Gamboa", "localidade": "Santo Cristo, 20220, Rio de Janeiro, Rio de Janeiro, Brasil", "organizacao": "Central de Movimentos Populares", "categoria": "Soberania Alimentar e Nutricional", "estado": "RJ", "municipio": "Rio de Janeiro" }, "geometry": { "type": "Point", "coordinates": [ -43.2034, -22.9008 ] } },
{ "type": "Feature", "properties": { "nome_acao": "Centro Comunitário de Cidadania e Cultura Vila DALVA", "nome_comunidade": "Vila Dalva", "localidade": "Avenida Gustavo Berthier São Paulo - São Paulo, 06030-140, Brasil", "organizacao": "Centro Comunitário de Cidadania e Cultura Vila DALVA", "categoria": "Soberania Alimentar e Nutricional", "estado": "SP", "municipio": "São Paulo" }, "geometry": { "type": "Point", "coordinates": [ -46.7650996, -23.5634948 ] } },
{ "type": "Feature", "properties": { "nome_acao": "Centro comunitário Mário Andrade", "nome_comunidade": "Comunidade paz e amor", "localidade": "Rua Professor José Brasileiro Vila Nova, Ibura, Recife - Pernambuco, 51220, Brasil", "organizacao": "Centro comunitário Mário Andrade", "categoria": "Planejamento Urbano, Gestão de Riscos e Responsabilidade Climática", "estado": "PE", "municipio": "Recife" }, "geometry": { "type": "Point", "coordinates": [ -34.9295824, -8.1142225 ] } },
{ "type": "Feature", "properties": { "nome_acao": "Centro Cultural de Capoeira Terreiro do Brasil", "nome_comunidade": "Morro das Pedras", "localidade": "Rua Treze De Setembro 230, Leonina, Belo Horizonte - Minas Gerais, 30451-700, Brasil", "organizacao": "Centro Cultural de Capoeira Terreiro do Brasil", "categoria": "Cultura e Memória", "estado": "MG", "municipio": "Belo Horizonte" }, "geometry": { "type": "Point", "coordinates": [ -43.963373, -19.953502 ] } },
{ "type": "Feature", "properties": { "nome_acao": "Grupo de Capoeira", "nome_comunidade": "Comunidade da Fazendinba", "localidade": "Rua Tranquedo Neves Oiapoque - Amapá, Brasil", "organizacao": "Centro Cultural Energia Pura", "categoria": "Cultura e Memória", "estado": "AP", "municipio": "Oiapoque" }, "geometry": { "type": "Point", "coordinates": [ -51.8241197, 3.8428874 ] } },
{ "type": "Feature", "properties": { "nome_acao": "Centro Cultural Senzala de Capoeira", "nome_comunidade": "Salão da igreja São Judas Tadeu", "localidade": "Vila Itapuca, 27532, Resende, Rio de Janeiro, Brasil", "organizacao": "Centro Cultural Senzala de Capoeira", "categoria": "Comunicação, Inclusão Digital e Educação Popular", "estado": "RJ", "municipio": "Resende" }, "geometry": { "type": "Point", "coordinates": [ -44.48, -22.47 ] } },
{ "type": "Feature", "properties": { "nome_acao": "CENTRO DE CONVIVÊNCIA SOCIAL DO RECIFE", "nome_comunidade": "Fundão", "localidade": "Avenida Gedalha, Fundão, Recife - Pernambuco, 52221, Brasil", "organizacao": "Centro de Convivência Social do Recife", "categoria": "Acesso à Justiça e Combate às Desigualdades", "estado": "PE", "municipio": "Recife" }, "geometry": { "type": "Point", "coordinates": [ -34.889389, -8.0117306 ] } },
{ "type": "Feature", "properties": { "nome_acao": "Museu comunitário direito ao território", "nome_comunidade": "Comunidade Boa Esperança São Joaquim", "localidade": "Rua 5, São Joaquim, Teresina - Piauí, Brasil", "organizacao": "Centro de defesa Ferreira de Souza", "categoria": "Acesso à Justiça e Combate às Desigualdades", "estado": "PI", "municipio": "Teresina" }, "geometry": { "type": "Point", "coordinates": [ -42.8362472, -5.0607674 ] } },
{ "type": "Feature", "properties": { "nome_acao": "oficinas culturais gratuitas a crianças e jovens (musica, dança, teatro, capoeira, karatê, banda fanfarra e biblioteca comunitária).", "nome_comunidade": "Rua Senador Dantas, 578,centro", "localidade": "Rio de Janeiro, Rio de Janeiro, Brasil", "organizacao": "Coletivo Cultural Gente Arteira em Cena", "categoria": "Economia Solidária", "estado": "RJ", "municipio": "Carmo" }, "geometry": { "type": "Point", "coordinates": [ -43.209373, -22.911014 ] } },
{ "type": "Feature", "properties": { "nome_acao": "Programa Mulheres do Sol", "nome_comunidade": "Sol Nascente/ Pôr do Sol", "localidade": "Sh Sol Nascente Brasília - Distrito Federal, 72236-800, Brasil", "organizacao": "Centro de Preservação e Conservação Ambiental -casa da natureza", "categoria": "Planejamento Urbano, Gestão de Riscos e Responsabilidade Climática", "estado": "DF", "municipio": "Ceilândia" }, "geometry": { "type": "Point", "coordinates": [ -48.1207958, -15.8345591 ] } },
{ "type": "Feature", "properties": { "nome_acao": "Centro de Triagem da Vila Pinto - Reciclagem", "nome_comunidade": "Bom Jesus", "localidade": "Rua T Fátima-Pinto 143, Bom Jesus, Porto Alegre - Rio Grande do Sul, 90020-220, Brasil", "organizacao": "Centro de Triagem da Vila Pinto - CTVP", "categoria": "Economia Solidária", "estado": "RS", "municipio": "Porto Alegre" }, "geometry": { "type": "Point", "coordinates": [ -51.152865, -30.046362 ] } },
{ "type": "Feature", "properties": { "nome_acao": "Biblioteca Comunitária Caranguejo Tabaiares", "nome_comunidade": "Comunidade Caranguejo Tabaiares", "localidade": "Rua Campos Tabaiares, Ilha Do Retiro, Recife - Pernambuco, 50750, Brasil", "organizacao": "Centro Educacional e Cultural Caranguejo Tabaiares", "categoria": "Comunicação, Inclusão Digital e Educação Popular", "estado": "PE", "municipio": "Recife" }, "geometry": { "type": "Point", "coordinates": [ -34.9056509, -8.0665862 ] } },
{ "type": "Feature", "properties": { "nome_acao": "Ninguém Vai Passar Fome", "nome_comunidade": "Pessoas em situação de rua", "localidade": "Canoas, Rio Grande do Sul, Brasil", "organizacao": "Centro Espiritualista Reino de Daomé", "categoria": "Soberania Alimentar e Nutricional", "estado": "RS", "municipio": "Canoas" }, "geometry": { "type": "Point", "coordinates": [ -51.179953, -29.921604 ] } },
{ "type": "Feature", "properties": { "nome_acao": "Centro Sócio Pastoral Nossa Senhora da Conceição", "nome_comunidade": "Mãe Luiza", "localidade": "Mãe Luíza, Natal, Rio Grande do Norte, Brasil", "organizacao": "Centro Sócio Pastoral Nossa Senhora da Conceição", "categoria": "Acesso à Justiça e Combate às Desigualdades", "estado": "RN", "municipio": "Natal" }, "geometry": { "type": "Point", "coordinates": [ -35.19, -5.79 ] } },
{ "type": "Feature", "properties": { "nome_acao": "CEPL Coletivo de Educação Popular e Libertária", "nome_comunidade": "Favela Vila Parque da Cidade Gávea RJ", "localidade": "Gávea Pequena, Rio de Janeiro, Rio de Janeiro 20531, Brasil", "organizacao": "CEPL Coletivo de Educação Popular e Libertária", "categoria": "Soberania Alimentar e Nutricional", "estado": "RJ", "municipio": "Rio de Janeiro" }, "geometry": { "type": "Point", "coordinates": [ -43.278201, -22.975809 ] } },
{ "type": "Feature", "properties": { "nome_acao": "Cultura /esporte para adolescentes", "nome_comunidade": "José Ometto", "localidade": "Araras, São Paulo, Brasil", "organizacao": "Ceu José Olavo paganotti", "categoria": "Cultura e Memória", "estado": "SP", "municipio": "Araras" }, "geometry": { "type": "Point", "coordinates": [ -47.383889, -22.356948 ] } },
{ "type": "Feature", "properties": { "nome_acao": "Cia Cênica Torre de Papel", "nome_comunidade": "Bairro Nordeste, Lucas Porpino, Rodagem, Mutirão", "localidade": "Rua Coronel Francisco Dias Guarabira - Paraíba, 58200-000, Brasil", "organizacao": "Cia Cênica Torre de Papel", "categoria": "Cultura e Memória", "estado": "PB", "municipio": "Guarabira" }, "geometry": { "type": "Point", "coordinates": [ -35.4857245, -6.8528665 ] } },
{ "type": "Feature", "properties": { "nome_acao": "Cia Gingado da Libertação", "nome_comunidade": "Vamos ver o sol", "localidade": "Santo Antônio, 64035, Teresina, Piauí, Brasil", "organizacao": "Cia Gingado da Libertação", "categoria": "Cultura e Memória", "estado": "PI", "municipio": "Teresina" }, "geometry": { "type": "Point", "coordinates": [ -42.77, -5.16 ] } },
{ "type": "Feature", "properties": { "nome_acao": "Cine Club TF", "nome_comunidade": "Terra Firme", "localidade": "Rua Angelim 14, Montese (Terra Firme), Belém - Pará, 66077-385, Brasil", "organizacao": "Cine clube TF", "categoria": "Acesso à Justiça e Combate às Desigualdades", "estado": "PA", "municipio": "Belém" }, "geometry": { "type": "Point", "coordinates": [ -48.447325, -1.448924 ] } },
{ "type": "Feature", "properties": { "nome_acao": "Instituto BR 55 / Casa Hip-Hop Brasil / Memorial Hip-Hop Brasil", "nome_comunidade": "Cidade de Deus onde sou criado, Lapa e todas as favelas do Rio de Janeiro.", "localidade": "Rio de Janeiro, Rio de Janeiro, Brasil", "organizacao": "Instituto BR 55 / Casa Hip-Hop Brasil / Memorial Hip-Hop Brasil", "categoria": "Cultura e Memória", "estado": "RJ", "municipio": "Rio de Janeiro" }, "geometry": { "type": "Point", "coordinates": [ -43.209373, -22.911014 ] } },
{ "type": "Feature", "properties": { "nome_acao": "lenyr", "nome_comunidade": "Vila operária", "localidade": "Rio de Janeiro, Rio de Janeiro, Brasil", "organizacao": "MNU", "categoria": "Acesso à Justiça e Combate às Desigualdades", "estado": "RJ", "municipio": "Duque de Caxias" }, "geometry": { "type": "Point", "coordinates": [ -43.209373, -22.911014 ] } },
{ "type": "Feature", "properties": { "nome_acao": "Coen- Contenção de enchentes", "nome_comunidade": "São lourenço", "localidade": "São Lourenço, Minas Gerais, Brasil", "organizacao": "Coen- contenção de enchentes", "categoria": "Planejamento Urbano, Gestão de Riscos e Responsabilidade Climática", "estado": "MG", "municipio": "São Lourenço" }, "geometry": { "type": "Point", "coordinates": [ -45.054167, -22.116389 ] } },
{ "type": "Feature", "properties": { "nome_acao": "Radar de Territórios", "nome_comunidade": "Administração Regional do Sol Nascente DF", "localidade": "Sh Sol Nascente Brasília - Distrito Federal, 72236-800, Brasil", "organizacao": "Colaboratório CTIS da Fiocruz", "categoria": "Saúde Integral e Dignidade Humana", "estado": "DF", "municipio": "Ceilândia" }, "geometry": { "type": "Point", "coordinates": [ -48.1318532, -15.8242445 ] } },
{ "type": "Feature", "properties": { "nome_acao": "Coletiva e Selo Editorial Me Parió Revolução", "nome_comunidade": "Jardim São Saverio", "localidade": "Rua Memorial De Aires São Paulo - São Paulo, 00000-000, Brasil", "organizacao": "Coletiva e Selo Editorial Me Parió Revolução", "categoria": "Cultura e Memória", "estado": "SP", "municipio": "São Paulo" }, "geometry": { "type": "Point", "coordinates": [ -46.609169537500001, -23.65326525 ] } },
{ "type": "Feature", "properties": { "nome_acao": "Mãe na Roda - Doulagem Coletiva e Periférica", "nome_comunidade": "jd. Ibirapuera", "localidade": "Jardim São Luís, São Paulo, São Paulo, Brasil", "organizacao": "Coletiva Mãe na Roda - Adosp - Parto do Principio - FenadoulasBR", "categoria": "Acesso à Justiça e Combate às Desigualdades", "estado": "SP", "municipio": "São Paulo" }, "geometry": { "type": "Point", "coordinates": [ -46.7407, -23.6739 ] } },
{ "type": "Feature", "properties": { "nome_acao": "Complexo Alto", "nome_comunidade": "Cidade Alta", "localidade": "Rio de Janeiro, Rio de Janeiro, Brasil", "organizacao": "Roda CDA", "categoria": "Comunicação, Inclusão Digital e Educação Popular", "estado": "RJ", "municipio": "Rio de Janeiro" }, "geometry": { "type": "Point", "coordinates": [ -43.209373, -22.911014 ] } },
{ "type": "Feature", "properties": { "nome_acao": "POR.ELAS", "nome_comunidade": "SH Sol Nascente Trecho 3", "localidade": "Ch 114 Conjunto A B Brasília - Distrito Federal, 72236-800, Brasil", "organizacao": "COLETIVA POR.ELAS", "categoria": "Acesso à Justiça e Combate às Desigualdades", "estado": "DF", "municipio": "Ceilândia" }, "geometry": { "type": "Point", "coordinates": [ -48.1476698, -15.8096931 ] } },
{ "type": "Feature", "properties": { "nome_acao": "Coletivo de Hip Hop", "nome_comunidade": "Zona Norte", "localidade": "Rio de Janeiro, Rio de Janeiro, Brasil", "organizacao": "Tropa da Norte", "categoria": "Cultura e Memória", "estado": "RJ", "municipio": "Rio de Janeiro" }, "geometry": { "type": "Point", "coordinates": [ -43.209373, -22.911014 ] } },
{ "type": "Feature", "properties": { "nome_acao": "Obompó-ropongá", "nome_comunidade": "Bairro de Felipe Camarão", "localidade": "Rua Da Fé 214, Filipe Camarão, Natal - Rio Grande do Norte, 59072-110, Brasil", "organizacao": "Coletivo A Gente", "categoria": "Cultura e Memória", "estado": "RN", "municipio": "Natal" }, "geometry": { "type": "Point", "coordinates": [ -35.249534, -5.824898 ] } },
{ "type": "Feature", "properties": { "nome_acao": "COLETIVO AME O SANTO AMARO", "nome_comunidade": "MORRO SANTO AMARO", "localidade": "Rua Santo Amaro 349, Santa Teresa, Rio de Janeiro - Rio de Janeiro, 22211, Brasil", "organizacao": "COLETIVO AME O SANTO AMARO", "categoria": "Acesso à Justiça e Combate às Desigualdades", "estado": "RJ", "municipio": "Rio de Janeiro" }, "geometry": { "type": "Point", "coordinates": [ -43.181548, -22.923964 ] } },
{ "type": "Feature", "properties": { "nome_acao": "Coletivo Anti Cinema", "nome_comunidade": "Jardim Meriti", "localidade": "Rua Congo 20, Jardim Meriti, São João de Meriti - Rio de Janeiro, 25555-420, Brasil", "organizacao": "Coletivo Anti Cinema", "categoria": "Comunicação, Inclusão Digital e Educação Popular", "estado": "RJ", "municipio": "São João de Meriti" }, "geometry": { "type": "Point", "coordinates": [ -43.368436, -22.788653 ] } },
{ "type": "Feature", "properties": { "nome_acao": "Batalhas de rap, recital de poesia e movimento sociais e culturais", "nome_comunidade": "Comunidade do barreirão", "localidade": "Rua Professora Lourdes Dutra, Água Fria, Recife - Pernambuco, 52130, Brasil", "organizacao": "Coletivo Boca no trombone", "categoria": "Cultura e Memória", "estado": "PE", "municipio": "Recife" }, "geometry": { "type": "Point", "coordinates": [ -34.8946743, -8.0163216 ] } },
{ "type": "Feature", "properties": { "nome_acao": "Coletivo Cabinhas Leitores -  promove rodas de mediação de leitura nas bibliotecas comunitárias de Fortaleza (CE), através de mediadores qualificados e seleção de livros efetivamente literários.", "nome_comunidade": "Bairro Granja Lisboa (uma das comunidades do Grande Bom Jardim)", "localidade": "Rua Xavier Da Silveira, Bom Jardim, Fortaleza - Ceará, 60540-215, Brasil", "organizacao": "Coletivo Cabinhas Leitores", "categoria": "Cultura e Memória", "estado": "CE", "municipio": "Fortaleza" }, "geometry": { "type": "Point", "coordinates": [ -38.60977, -3.7933987 ] } },
{ "type": "Feature", "properties": { "nome_acao": "Cultura, através do rap com a juventude preta periférica", "nome_comunidade": "Bairro Delma", "localidade": "Rua Mato Grosso 44, Ribeirão das Neves - Minas Gerais, 33930-690, Brasil", "organizacao": "Coletivo Casa dos Livros", "categoria": "Cultura e Memória", "estado": "MG", "municipio": "Ribeirão das Neves" }, "geometry": { "type": "Point", "coordinates": [ -43.997817, -19.793024 ] } },
{ "type": "Feature", "properties": { "nome_acao": "Horta na favela", "nome_comunidade": "Rocinha", "localidade": "Rocinha, 22451, Rio de Janeiro, Rio de Janeiro, Brasil", "organizacao": "Projeto horta na favela", "categoria": "Planejamento Urbano, Gestão de Riscos e Responsabilidade Climática", "estado": "RJ", "municipio": "Rio de Janeiro" }, "geometry": { "type": "Point", "coordinates": [ -43.2483, -22.9889 ] } },
{ "type": "Feature", "properties": { "nome_acao": "Rocinha Comunic", "nome_comunidade": "Rocinha", "localidade": "Rocinha, 22451, Rio de Janeiro, Rio de Janeiro, Brasil", "organizacao": "Rocinha Comunic", "categoria": "Comunicação, Inclusão Digital e Educação Popular", "estado": "RJ", "municipio": "Rio de Janeiro" }, "geometry": { "type": "Point", "coordinates": [ -43.2483, -22.9889 ] } },
{ "type": "Feature", "properties": { "nome_acao": "Coletivo Comunidade da linha Resiste", "nome_comunidade": "COMUNIDADE DA LINHA SÍTIO SANTA FRANCISCA", "localidade": "Rua Professor Potiguar Matos, Ibura, Recife - Pernambuco, 51220, Brasil", "organizacao": "COLETIVO DA COMUNIDADE DA LINHA RESISTE", "categoria": "Planejamento Urbano, Gestão de Riscos e Responsabilidade Climática", "estado": "PE", "municipio": "Recife" }, "geometry": { "type": "Point", "coordinates": [ -34.9309818, -8.1087212 ] } },
{ "type": "Feature", "properties": { "nome_acao": "Coletivo Dancê Art", "nome_comunidade": "Bom Jesus, Restinga e Centro de Porto alegre", "localidade": "Escola de Samba Copacabana, Porto Alegre, Rio Grande do Sul 91420, Brasil", "organizacao": "Coletivo Dancê Art", "categoria": "Cultura e Memória", "estado": "RS", "municipio": "Porto Alegre" }, "geometry": { "type": "Point", "coordinates": [ -51.153764, -30.042468 ] } },
{ "type": "Feature", "properties": { "nome_acao": "Coletivo de Mulheres da Região Noroeste", "nome_comunidade": "Região Noroeste de Goiânia", "localidade": "Avenida Do Povo Goiânia - Goiás, 74480-110, Brasil", "organizacao": "Coletivo de Mulheres da Região Noroeste", "categoria": "Acesso à Justiça e Combate às Desigualdades", "estado": "GO", "municipio": "Goiânia" }, "geometry": { "type": "Point", "coordinates": [ -49.3460129, -16.6147584 ] } },
{ "type": "Feature", "properties": { "nome_acao": "Coletivo Força Tururu", "nome_comunidade": "Tururu", "localidade": "Rua São João Evangelista, Janga, Paulista - Pernambuco, Brasil", "organizacao": "Coletivo Força Tururu", "categoria": "Comunicação, Inclusão Digital e Educação Popular", "estado": "PE", "municipio": "Paulista" }, "geometry": { "type": "Point", "coordinates": [ -34.8371961, -7.943062 ] } },
{ "type": "Feature", "properties": { "nome_acao": "Projeto de alfabetização para adultos, escola Maria Vila alta", "nome_comunidade": "Vila alta", "localidade": "Rua Dos Ipes, Zona 10, Paranavaí - Paraná, Brasil", "organizacao": "Coletivo LGBTI+ de Paranavai", "categoria": "Saúde Integral e Dignidade Humana", "estado": "PR", "municipio": "Paranavaí" }, "geometry": { "type": "Point", "coordinates": [ -52.4445198, -23.1016431 ] } },
{ "type": "Feature", "properties": { "nome_acao": "CYPHER NA RUA", "nome_comunidade": "CORTE 8", "localidade": "Duque de Caxias, Rio de Janeiro, Brasil", "organizacao": "CENTRO DE DESENVOLVIMENTO DE ATRIBUTOS URBANOS", "categoria": "Planejamento Urbano, Gestão de Riscos e Responsabilidade Climática", "estado": "RJ", "municipio": "Duque de Caxias" }, "geometry": { "type": "Point", "coordinates": [ -43.309929, -22.789622 ] } },
{ "type": "Feature", "properties": { "nome_acao": "Morada OKENOZUNE", "nome_comunidade": "Jaraguá", "localidade": "Avenida Jerimanduba 175, São Paulo - São Paulo, 05180-000, Brasil", "organizacao": "Coletivo Matriarcal PanAfricanista Yaa Asantewaa", "categoria": "Planejamento Urbano, Gestão de Riscos e Responsabilidade Climática", "estado": "SP", "municipio": "São Paulo" }, "geometry": { "type": "Point", "coordinates": [ -46.742001, -23.454567 ] } },
{ "type": "Feature", "properties": { "nome_acao": "Coletivo Mulheres Periféricas e LGBT+", "nome_comunidade": "Peixinhos", "localidade": "Rua Igarassu 130, Peixinhos, Olinda - Pernambuco, 53220-290, Brasil", "organizacao": "Coletivo Mulheres Periféricas e LGBT+", "categoria": "Acesso à Justiça e Combate às Desigualdades", "estado": "PE", "municipio": "Olinda" }, "geometry": { "type": "Point", "coordinates": [ -34.875938, -8.015327 ] } },
{ "type": "Feature", "properties": { "nome_acao": "Museu Paiter A Soe- Cultura Paiter e Urgência Climática", "nome_comunidade": "Aldeia Gapgir ,Terra Indígena Sete de Setembro", "localidade": "Linha 14 Cacoal - Rondônia, 76962-970, Brasil", "organizacao": "Coletivo Museu Paiter A soe", "categoria": "Comunicação, Inclusão Digital e Educação Popular", "estado": "RO", "municipio": "Cacoal" }, "geometry": { "type": "Point", "coordinates": [ -61.0968267, -11.4334167 ] } },
{ "type": "Feature", "properties": { "nome_acao": "FESTIVAL NATORA ( MUSICA )", "nome_comunidade": "PEIXINHOS", "localidade": "Olinda, Pernambuco, Brasil", "organizacao": "COLETIVO NATORA, CENTRO DE EDUCAÇÃO E CULTURA MARCAXÉ", "categoria": "Comunicação, Inclusão Digital e Educação Popular", "estado": "PE", "municipio": "Olinda" }, "geometry": { "type": "Point", "coordinates": [ -34.845955, -7.99864 ] } },
{ "type": "Feature", "properties": { "nome_acao": "cypher na rua", "nome_comunidade": "Corte 8", "localidade": "Duque de Caxias, Rio de Janeiro, Brasil", "organizacao": "Urbanos Bf e cypher na Rua", "categoria": "Soberania Alimentar e Nutricional", "estado": "RJ", "municipio": "Duque de Caxias" }, "geometry": { "type": "Point", "coordinates": [ -43.309929, -22.789622 ] } },
{ "type": "Feature", "properties": { "nome_acao": "Jornal Cdd Acontece", "nome_comunidade": "Cidade de Deus", "localidade": "Cidade de Deus, 22773, Rio de Janeiro, Rio de Janeiro, Brasil", "organizacao": "***", "categoria": "Comunicação, Inclusão Digital e Educação Popular", "estado": "RJ", "municipio": "Rio de Janeiro" }, "geometry": { "type": "Point", "coordinates": [ -43.3629, -22.948 ] } },
{ "type": "Feature", "properties": { "nome_acao": "SOS CDD", "nome_comunidade": "Cidade de Deus", "localidade": "Cidade de Deus, 22773, Rio de Janeiro, Rio de Janeiro, Brasil", "organizacao": "Sos CDD e Fundação Desce Favela", "categoria": "Acesso à Justiça e Combate às Desigualdades", "estado": "RJ", "municipio": "Rio de Janeiro" }, "geometry": { "type": "Point", "coordinates": [ -43.3629, -22.948 ] } },
{ "type": "Feature", "properties": { "nome_acao": "Coletivo Periféricas", "nome_comunidade": "Ibura", "localidade": "Ibura, 51210, Recife, Pernambuco, Brasil", "organizacao": "Coletivo Periféricas", "categoria": "Comunicação, Inclusão Digital e Educação Popular", "estado": "PE", "municipio": "Jaboatão dos Guararapes" }, "geometry": { "type": "Point", "coordinates": [ -34.9321, -8.1224 ] } },
{ "type": "Feature", "properties": { "nome_acao": "Sociocultural do Pilar", "nome_comunidade": "Comunidade do Pilar", "localidade": "Rua Do Brum, Recife, Pernambuco 50030, Brasil", "organizacao": "Coletivo Plástico Vênus", "categoria": "Acesso à Justiça e Combate às Desigualdades", "estado": "PE", "municipio": "Recife" }, "geometry": { "type": "Point", "coordinates": [ -34.871957, -8.058308 ] } },
{ "type": "Feature", "properties": { "nome_acao": "Sarau Horto Poético", "nome_comunidade": "Fonseca", "localidade": "Alameda São Boaventura 770, Fonseca, Niterói - Rio de Janeiro, 24120, Brasil", "organizacao": "Coletivo Poetas em Ação", "categoria": "Cultura e Memória", "estado": "RJ", "municipio": "Niterói" }, "geometry": { "type": "Point", "coordinates": [ -43.091634, -22.884524 ] } },
{ "type": "Feature", "properties": { "nome_acao": "Alfazendo Brasil RJ Rio", "nome_comunidade": "Cidade de Deus RJ", "localidade": "Travessa Pafos 26, Cidade de Deus, Rio de Janeiro - Rio de Janeiro, 22773, Brasil", "organizacao": "Alfazendo Brasil RJ Rio", "categoria": "Soberania Alimentar e Nutricional", "estado": "RJ", "municipio": "Rio de Janeiro" }, "geometry": { "type": "Point", "coordinates": [ -43.364338, -22.946749 ] } },
{ "type": "Feature", "properties": { "nome_acao": "Roda Cultural do Engenho do Mato - Batalha do Engenho", "nome_comunidade": "Comunidade Tradicional do Engenho do Mato", "localidade": "Engenho Do Mato, 24344, Niterói, Rio de Janeiro, Brasil", "organizacao": "Coletivo Roda Cultural do Engenho do Mato", "categoria": "Cultura e Memória", "estado": "RJ", "municipio": "Niterói" }, "geometry": { "type": "Point", "coordinates": [ -43.0045, -22.9351 ] } },
{ "type": "Feature", "properties": { "nome_acao": "Coletivo Rosa Selvagem, coleta de resíduos orgânicos, tendo como objeto transformar o resíduo orgânico em adubo com o método de compostagem.", "nome_comunidade": "Rosa Selvagem", "localidade": "Creche Rosa Selvagem, Recife, Pernambuco 50970, Brasil", "organizacao": "Coletivo Rosa Selvagem", "categoria": "Planejamento Urbano, Gestão de Riscos e Responsabilidade Climática", "estado": "PE", "municipio": "Recife" }, "geometry": { "type": "Point", "coordinates": [ -34.97864, -8.032086 ] } },
{ "type": "Feature", "properties": { "nome_acao": "Eco Rede -Rede Comunitária de Desenvolvimento Socioambiental", "nome_comunidade": "Cidade de Deus", "localidade": "Travessa Pafos 26, Cidade de Deus, Rio de Janeiro - Rio de Janeiro, 22773, Brasil", "organizacao": "Alfazendo Brasil RJ Rio", "categoria": "Planejamento Urbano, Gestão de Riscos e Responsabilidade Climática", "estado": "RJ", "municipio": "Rio de Janeiro" }, "geometry": { "type": "Point", "coordinates": [ -43.364338, -22.946749 ] } },
{ "type": "Feature", "properties": { "nome_acao": "Coletivo Sarauê", "nome_comunidade": "Parelheiros", "localidade": "Praça Júlio César De Campos São Paulo - São Paulo, 04890-370, Brasil", "organizacao": "Coletivo Sarauê", "categoria": "Cultura e Memória", "estado": "SP", "municipio": "São Paulo" }, "geometry": { "type": "Point", "coordinates": [ -46.7308776, -23.8281233 ] } },
{ "type": "Feature", "properties": { "nome_acao": "Compartilhando a gente cresce juntos", "nome_comunidade": "Bairro Gaspar", "localidade": "Muriaé, Minas Gerais, Brasil", "organizacao": "Coletivo Ser Feliz é Saber Viver", "categoria": "Cultura e Memória", "estado": "MG", "municipio": "Muriaé" }, "geometry": { "type": "Point", "coordinates": [ -42.366389, -21.130556 ] } },
{ "type": "Feature", "properties": { "nome_acao": "Comissão Solidária Vila da Barca- Projeto Barca Literária", "nome_comunidade": "Comunidade Vila da Barca", "localidade": "Passagem Cameta, Telégrafo, Belém - Pará, 66113-080, Brasil", "organizacao": "Comissão Solidária Vila da Barca", "categoria": "Comunicação, Inclusão Digital e Educação Popular", "estado": "PA", "municipio": "Belém" }, "geometry": { "type": "Point", "coordinates": [ -48.4917802, -1.4265701 ] } },
{ "type": "Feature", "properties": { "nome_acao": "Companhia Circense Akrobas", "nome_comunidade": "Grajaú", "localidade": "Rua Ezequiel Lopes Cardoso 333, São Paulo - São Paulo, 04843-610, Brasil", "organizacao": "Companhia Circense Akrobas", "categoria": "Saúde Integral e Dignidade Humana", "estado": "SP", "municipio": "São Paulo" }, "geometry": { "type": "Point", "coordinates": [ -46.687747, -23.749427 ] } },
{ "type": "Feature", "properties": { "nome_acao": "Ação social", "nome_comunidade": "Pousada da esperança 1", "localidade": "Rua Miguel Debia Bauru - São Paulo, 17022, Brasil", "organizacao": "Comunidade em Ação", "categoria": "Economia Solidária", "estado": "SP", "municipio": "Bauru" }, "geometry": { "type": "Point", "coordinates": [ -49.0734784, -22.2745841 ] } },
{ "type": "Feature", "properties": { "nome_acao": "Conexão das Periferia/ As Dona", "nome_comunidade": "Escolas e universidades", "localidade": "Guarapuava, Paraná, Brasil", "organizacao": "Conexão das Periferia", "categoria": "Acesso à Justiça e Combate às Desigualdades", "estado": "PR", "municipio": "Guarapuava" }, "geometry": { "type": "Point", "coordinates": [ -51.462202, -25.395099 ] } },
{ "type": "Feature", "properties": { "nome_acao": "CONEXÃO UBUNTU", "nome_comunidade": "MANGUEIRA - RIO DE JANEIRO", "localidade": "Rua Visconde De Niterói 1364, Mangueira, Rio de Janeiro - Rio de Janeiro, 20943, Brasil", "organizacao": "CONEXÃO UBUNTU", "categoria": "Soberania Alimentar e Nutricional", "estado": "RJ", "municipio": "Rio de Janeiro" }, "geometry": { "type": "Point", "coordinates": [ -43.240804, -22.9012 ] } },
{ "type": "Feature", "properties": { "nome_acao": "Daniele", "nome_comunidade": "Vila Canaã", "localidade": "Rua Newton Prado 58, Vasco da Gama, Rio de Janeiro - Rio de Janeiro, 20930, Brasil", "organizacao": "Conselho popular", "categoria": "Planejamento Urbano, Gestão de Riscos e Responsabilidade Climática", "estado": "RJ", "municipio": "Rio de Janeiro" }, "geometry": { "type": "Point", "coordinates": [ -43.2253, -22.889399 ] } },
{ "type": "Feature", "properties": { "nome_acao": "UZS CREW (graffiti)", "nome_comunidade": "Quarenta", "localidade": "Rua Anacleto Eloy, Quarenta, Campina Grande - Paraíba, Brasil", "organizacao": "Construção Nacional cinquentenário hiphop", "categoria": "Comunicação, Inclusão Digital e Educação Popular", "estado": "PB", "municipio": "Campina Grande" }, "geometry": { "type": "Point", "coordinates": [ -35.8992976, -7.2328495 ] } },
{ "type": "Feature", "properties": { "nome_acao": "Justa Trama: a roupa que veste a consciência", "nome_comunidade": "Vila Nossa Sra Aparecida, bairro Sarandi", "localidade": "Sarandi, 91130, Porto Alegre, Rio Grande do Sul, Brasil", "organizacao": "COOPERATIVA CENTRAL JUSTA TRAMA", "categoria": "Economia Solidária", "estado": "RS", "municipio": "Porto Alegre" }, "geometry": { "type": "Point", "coordinates": [ -51.1243, -29.9989 ] } },
{ "type": "Feature", "properties": { "nome_acao": "Assentamento 20 de Novembro", "nome_comunidade": "Assentamento 20 de Novembro", "localidade": "Rua Doutor Barros Cassal 161, Floresta, Porto Alegre - Rio Grande do Sul, 90035-030, Brasil", "organizacao": "Cooperativa de Trabalho e Habitação 20 de Novembro", "categoria": "Planejamento Urbano, Gestão de Riscos e Responsabilidade Climática", "estado": "RS", "municipio": "Porto Alegre" }, "geometry": { "type": "Point", "coordinates": [ -51.217477, -30.02743 ] } },
{ "type": "Feature", "properties": { "nome_acao": "Somos uma comunidade de moradores de periferia, desenvolvemos atividades pedagógicas para crianças e alfabetização de jovens e adultos", "nome_comunidade": "Villa Maria", "localidade": "Rua Professor Jorge Bahlis 55, Cavalhada, Porto Alegre - Rio Grande do Sul, 91920-330, Brasil", "organizacao": "COOPMOVIMA", "categoria": "Comunicação, Inclusão Digital e Educação Popular", "estado": "RS", "municipio": "Porto Alegre" }, "geometry": { "type": "Point", "coordinates": [ -51.229709, -30.111593 ] } },
{ "type": "Feature", "properties": { "nome_acao": "Cordão Sucatas Ambulantes", "nome_comunidade": "Conjunto Habitacional José Bonifácio", "localidade": "Cohab II, São Paulo, São Paulo 08255, Brasil", "organizacao": "Cordão Sucatas Ambulantes", "categoria": "Cultura e Memória", "estado": "SP", "municipio": "São Paulo" }, "geometry": { "type": "Point", "coordinates": [ -46.433775, -23.55431 ] } },
{ "type": "Feature", "properties": { "nome_acao": "CPX MANGUEIRINHA EM PAUTA", "nome_comunidade": "Complexo da Mangueirinha de Caxias", "localidade": "Rua Duque De Caxias Mangueirinha - Paraná, 85540-000, Brasil", "organizacao": "CPX Mangueirinha em pauta", "categoria": "Comunicação, Inclusão Digital e Educação Popular", "estado": "RJ", "municipio": "Duque de Caxias" }, "geometry": { "type": "Point", "coordinates": [ -52.1767572, -25.939843 ] } },
{ "type": "Feature", "properties": { "nome_acao": "CRECHE ESCOLA MARIA DE NAZARÉ", "nome_comunidade": "Jardim Paulista, Mirueira,  Bolívia,  Canos, Vila Vitória", "localidade": "Rua Cinquenta E Um, Jardim Paulista, Paulista - Pernambuco, Brasil", "organizacao": "Creche Escola Maria de Nazaré", "categoria": "Acesso à Justiça e Combate às Desigualdades", "estado": "PE", "municipio": "Paulista" }, "geometry": { "type": "Point", "coordinates": [ -34.8989063, -7.9497592 ] } },
{ "type": "Feature", "properties": { "nome_acao": "Crew graffite MSTK(Movimento Sem Tinta Krew)", "nome_comunidade": "Em Belford Roxo e em todo RJ", "localidade": "Belford Roxo, Rio de Janeiro, Brasil", "organizacao": "Crew MSTK", "categoria": "Cultura e Memória", "estado": "RJ", "municipio": "Belford Roxo" }, "geometry": { "type": "Point", "coordinates": [ -43.40336, -22.766728 ] } },
{ "type": "Feature", "properties": { "nome_acao": "Cria em Ação", "nome_comunidade": "Comunidade do Pilar", "localidade": "Rua Do Brum, Bairro do Recife, Recife - Pernambuco, 50030, Brasil", "organizacao": "Cria em Ação e paparazzis do Marco zero", "categoria": "Comunicação, Inclusão Digital e Educação Popular", "estado": "PE", "municipio": "Recife" }, "geometry": { "type": "Point", "coordinates": [ -34.8718131, -8.0569374 ] } },
{ "type": "Feature", "properties": { "nome_acao": "Croche arte sustentavel", "nome_comunidade": "Jd flor de maio", "localidade": "Rua Sempre Viva São Paulo - São Paulo, 02323-000, Brasil", "organizacao": "Croche arte sustentavel", "categoria": "Saúde Integral e Dignidade Humana", "estado": "SP", "municipio": "São Paulo" }, "geometry": { "type": "Point", "coordinates": [ -46.5760931, -23.4345863 ] } },
{ "type": "Feature", "properties": { "nome_acao": "HIP HOP ou [a Cultura Vitoriosa da Sabedoria Periférica] CVSP.", "nome_comunidade": "Vila São Pedro", "localidade": "Rua Juvenal Mesquita Bandeirantes - Paraná, 86360-000, Brasil", "organizacao": "Cultura VSP", "categoria": "Comunicação, Inclusão Digital e Educação Popular", "estado": "PR", "municipio": "Bandeirantes" }, "geometry": { "type": "Point", "coordinates": [ -50.3727156, -23.1074145 ] } },
{ "type": "Feature", "properties": { "nome_acao": "CULTURATORIO. Laboratório de Economia Criativa", "nome_comunidade": "SÃO JOÃO DA PONTA", "localidade": "Travessa Félix Mauá São João da Ponta - Pará, Brasil", "organizacao": "CULTURATORIO-Laboratório de Economia Criativa", "categoria": "Acesso à Justiça e Combate às Desigualdades", "estado": "PA", "municipio": "São João da Ponta" }, "geometry": { "type": "Point", "coordinates": [ -47.9264517, -0.9231683 ] } },
{ "type": "Feature", "properties": { "nome_acao": "Dá Teu Papo", "nome_comunidade": "Chapéu Mangueira/ Babilônia", "localidade": "Ladeira Ary Barroso, Leme, Rio de Janeiro - Rio de Janeiro, 22010, Brasil", "organizacao": "Da Teu Papo", "categoria": "Comunicação, Inclusão Digital e Educação Popular", "estado": "RJ", "municipio": "Rio de Janeiro" }, "geometry": { "type": "Point", "coordinates": [ -43.1701556, -22.960528 ] } },
{ "type": "Feature", "properties": { "nome_acao": "Coletivo OFIR City Rec", "nome_comunidade": "Feira de Gado (Brejinho)", "localidade": "Três Corações, Minas Gerais, Brasil", "organizacao": "Coletivo OFIR City Rec", "categoria": "Acesso à Justiça e Combate às Desigualdades", "estado": "MG", "municipio": "Três Corações" }, "geometry": { "type": "Point", "coordinates": [ -45.254368, -21.695625 ] } },
{ "type": "Feature", "properties": { "nome_acao": "Geração Cidadã de Dados (ex: https://cocozap.datalabe.org/)", "nome_comunidade": "Complexo da Maré", "localidade": "Rua Sete De Março 105, Maré, Rio de Janeiro - Rio de Janeiro, 21043, Brasil", "organizacao": "data_labe", "categoria": "Comunicação, Inclusão Digital e Educação Popular", "estado": "RJ", "municipio": "Rio de Janeiro" }, "geometry": { "type": "Point", "coordinates": [ -43.246941, -22.859649 ] } },
{ "type": "Feature", "properties": { "nome_acao": "DIVERSIDADE CULTURAL", "nome_comunidade": "PATIFY RECORD'S", "localidade": "Avenida Boulevard São Vicente, São Vicente, Belford Roxo - Rio de Janeiro, 26170-480, Brasil", "organizacao": "DIVERSIDADE CULTURAL", "categoria": "Cultura e Memória", "estado": "RJ", "municipio": "Belford Roxo" }, "geometry": { "type": "Point", "coordinates": [ -43.3697524, -22.7235629 ] } },
{ "type": "Feature", "properties": { "nome_acao": "Educação Popular de Base", "nome_comunidade": "Cpx Roseiral", "localidade": "DEGASE-CAI BAIXADA, Rua Begônias, Belford Roxo, Rio de Janeiro 26110, Brasil", "organizacao": "Educação Popular de Base", "categoria": "Acesso à Justiça e Combate às Desigualdades", "estado": "RJ", "municipio": "Belford Roxo" }, "geometry": { "type": "Point", "coordinates": [ -43.365645, -22.760278 ] } },
{ "type": "Feature", "properties": { "nome_acao": "Educavida", "nome_comunidade": "RMR", "localidade": "Detran, Est. Barbalho, 889 - Iputinga, Recife, Pernambuco 50690, Brasil", "organizacao": "EDUCAVIDA", "categoria": "Comunicação, Inclusão Digital e Educação Popular", "estado": "PE", "municipio": "Recife" }, "geometry": { "type": "Point", "coordinates": [ -34.939952, -8.031823 ] } },
{ "type": "Feature", "properties": { "nome_acao": "Batuque na Cozinha comida da gente contada pela gente", "nome_comunidade": "inter/multi região = MONGAGUÁ Ã MUSSACEO", "localidade": "Rodovia Padre Manoel Da Nóbrega Mongaguá - São Paulo, Brasil", "organizacao": "EES_AFÈFÈ ODARÁ", "categoria": "Economia Solidária", "estado": "SP", "municipio": "Peruíbe" }, "geometry": { "type": "Point", "coordinates": [ -46.7001708, -24.1318284 ] } },